[
  {
    "name": "A. S. DES INDOCHINOIS / EURASIENS DU CHER",

    "adresse": "28 rue Gambon 18000 BOURGES",

    "mail": "581318@lcfoot.fr",

    "Latitude": "47.086649",

    "Longitude": "2.391104"
  },

  {
    "name": "ASSOCIATION SPORTS ET LOISIRS D'ALLOUIS",

    "adresse": "18500 ALLOUIS",

    "mail": "564140@lcfoot.fr",

    "Latitude": "47.16587",

    "Longitude": "2.227867"
  },

  {
    "name": "C.S. ARGENT S/SAULDRE",

    "adresse": "RUE JEAN MOULIN 18410 ARGENT SUR SAULDRE",

    "mail": "504956@lcfoot.fr",

    "Latitude": "47.5590877",

    "Longitude": "2.4449075"
  },

  {
    "name": "ENT.S. AUBIGNY S/NERE",

    "adresse": "17. RUE DU VAL DE NERE DOMAINE D'AUBIGNY 18700 AUBIGNY SUR NERE",

    "mail": "504976@lcfoot.fr",

    "Latitude": "47.4683196",

    "Longitude": "2.4548883"
  },

  {
    "name": "F. C. AVORD",

    "adresse": "18520 AVORD",

    "mail": "547510@lcfoot.fr",

    "Latitude": "47.032962",

    "Longitude": "2.652172"
  },

  {
    "name": "A. S. DE BAUGY",

    "adresse": "18800 BAUGY",

    "mail": "504923@lcfoot.fr",

    "Latitude": "47.08103",

    "Longitude": "2.7282449"
  },

  {
    "name": "AM.S. BENGY S/CRAON",

    "adresse": "2 ROUTE DE FLAVIGNY 18520 BENGY SUR CRAON",

    "mail": "546258@lcfoot.fr",

    "Latitude": "46.9987448",

    "Longitude": "2.7487145"
  },

  {
    "name": "ENT.S. JUSTICES BOURGES",

    "adresse": "CHEMIN DE LA ROTTEE 18000 BOURGES",

    "mail": "525137@lcfoot.fr",

    "Latitude": "47.0578219",

    "Longitude": "2.4145535"
  },

  {
    "name": "A.S. DES PORTUGAIS BOURGES",

    "adresse": "ROUTE DE LA CHAPELLE ST.URSIN 18000 BOURGES",

    "mail": "524968@lcfoot.fr",

    "Latitude": "47.062388",

    "Longitude": "2.322142"
  },

  {
    "name": "A.S. BIGNY VALLENAY",

    "adresse": "18190 VALLENAY",

    "mail": "504997@lcfoot.fr",

    "Latitude": "46.784568",

    "Longitude": "2.371424"
  },

  {
    "name": "BOURGES 18",

    "adresse": "CHEMIN DES GROSSES PLANTES 18000 BOURGES",

    "mail": "553611@lcfoot.fr",

    "Latitude": "47.1151081",

    "Longitude": "2.3955193"
  },

  {
    "name": "BOURGES SPORT ACADEMY FOOTBALL",

    "adresse": "18000 BOURGES",

    "mail": "560639@lcfoot.fr",

    "Latitude": "47.0818269",

    "Longitude": "2.4039338"
  },

  {
    "name": "ASSOCIATION JEUNES SPORTIFS DE BOURGES",

    "adresse": "18000 BOURGES",

    "mail": "564144@lcfoot.fr",

    "Latitude": "47.0818269",

    "Longitude": "2.4039338"
  },

  {
    "name": "BOURGES FOOT",

    "adresse": "18000 BOURGES",

    "mail": "535039@lcfoot.fr",

    "Latitude": "47.0818269",

    "Longitude": "2.4039338"
  },

  {
    "name": "GAZELEC S. BOURGES",

    "adresse": "3 RUE MARCEL PAUL 18000 BOURGES",

    "mail": "501541@lcfoot.fr",

    "Latitude": "47.0652327",

    "Longitude": "2.3914803"
  },

  {
    "name": "ESPE.S. DU MOULON BOURGES",

    "adresse": "RUE DE LA SENTE AUX LOUPS 18000 BOURGES",

    "mail": "514340@lcfoot.fr",

    "Latitude": "47.102745",

    "Longitude": "2.402076"
  },

  {
    "name": "ET.S. BRECY",

    "adresse": "18220 BRECY",

    "mail": "505260@lcfoot.fr",

    "Latitude": "47.123515",

    "Longitude": "2.621374"
  },

  {
    "name": "SP.L. CHAILLOT VIERZON",

    "adresse": "129 ROUTE DE BELLON 18100 VIERZON",

    "mail": "529929@lcfoot.fr",

    "Latitude": "47.2036436",

    "Longitude": "2.0818334"
  },

  {
    "name": "A.S. CHALIVOY MILON",

    "adresse": "18 Route de Chaumont 18350 BLET",

    "mail": "518542@lcfoot.fr",

    "Latitude": "46.8917911",

    "Longitude": "2.732253"
  },

  {
    "name": "A.S. CHAPELLOISE",

    "adresse": "34 route de Marmagne 18570 LA CHAPELLE ST URSIN",

    "mail": "517324@lcfoot.fr",

    "Latitude": "47.0712914",

    "Longitude": "2.3207512"
  },

  {
    "name": "U.S. CHARENTON DU CHER",

    "adresse": "18210 CHARENTON DU CHER",

    "mail": "526146@lcfoot.fr",

    "Latitude": "46.729633",

    "Longitude": "2.644202"
  },

  {
    "name": "SP.C. CHATEAUNEUF S/CHER",

    "adresse": "50 RUE DE LA CHAUSSEE 18190 CHATEAUNEUF SUR CHER",

    "mail": "504892@lcfoot.fr",

    "Latitude": "46.8573877",

    "Longitude": "2.3184359"
  },

  {
    "name": "F.C. DE CIVRAY",

    "adresse": "MAIRIE DE CIVRAY 18290 CIVRAY",

    "mail": "542134@lcfoot.fr",

    "Latitude": "46.966644",

    "Longitude": "2.174432"
  },

  {
    "name": "SP.C. MASSAY",

    "adresse": "18120 MASSAY",

    "mail": "512286@lcfoot.fr",

    "Latitude": "47.152232",

    "Longitude": "1.991003"
  },

  {
    "name": "ET.S. COLOMBIERS",

    "adresse": "18200 COLOMBIERS",

    "mail": "537086@lcfoot.fr",

    "Latitude": "46.700066",

    "Longitude": "2.541513"
  },

  {
    "name": "U.S. DUN S/AURON",

    "adresse": "18130 DUN SUR AURON",

    "mail": "504867@lcfoot.fr",

    "Latitude": "46.887605",

    "Longitude": "2.572022"
  },

  {
    "name": "ST. BRINONNAIS BRINON S/SAULDRE",

    "adresse": "18410 BRINON SUR SAULDRE",

    "mail": "505170@lcfoot.fr",

    "Latitude": "47.567606",

    "Longitude": "2.25305"
  },

  {
    "name": "F.C. FUSSY ST MARTIN VIGNOUX",

    "adresse": "1 place de l'église 18110 VIGNOUX SOUS LES AIX",

    "mail": "581372@lcfoot.fr",

    "Latitude": "47.1863243",

    "Longitude": "2.4640179"
  },

  {
    "name": "U.S. HENRICHEMONT MENETOU SALON",

    "adresse": "MAIRIE 18250 HENRICHEMONT",

    "mail": "553691@lcfoot.fr",

    "Latitude": "47.3036884",

    "Longitude": "2.5243972"
  },

  {
    "name": "ENT.A.S. ORVAL",

    "adresse": "2 place de la Mairie 18200 ORVAL",

    "mail": "512117@lcfoot.fr",

    "Latitude": "46.726516",

    "Longitude": "2.4816443"
  },

  {
    "name": "F. C. VERDIGNY SANCERRE",

    "adresse": "PLACE DE PANNETERIE 18300 SANCERRE",

    "mail": "581320@lcfoot.fr",

    "Latitude": "47.3296678",

    "Longitude": "2.8392712"
  },

  {
    "name": "C.S. FOECY",

    "adresse": "18500 FOECY",

    "mail": "504909@lcfoot.fr",

    "Latitude": "47.178127",

    "Longitude": "2.159408"
  },

  {
    "name": "A.S.C. FRANCO-TURQUE DE BOURGES ET DU CHER",

    "adresse": "157 avenue du Général de Gaulle 18000 BOURGES",

    "mail": "582461@lcfoot.fr",

    "Latitude": "47.0999423",

    "Longitude": "2.4930497"
  },

  {
    "name": "GRACAY GENOUILLY SP.",

    "adresse": "18310 GRACAY",

    "mail": "547570@lcfoot.fr",

    "Latitude": "47.142242",

    "Longitude": "1.846102"
  },

  {
    "name": "GROUPEMENT C 2 L",

    "adresse": "ARNON BOISCHAUT CHER 18190 CHATEAUNEUF SUR CHER",

    "mail": "549879@lcfoot.fr",

    "Latitude": "46.8579421",

    "Longitude": "2.3197579"
  },

  {
    "name": "C.A. LA GUERCHE S/L'AUBOIS",

    "adresse": "Parc Maurice Fuselier 18150 LA GUERCHE SUR L AUBOIS",

    "mail": "505075@lcfoot.fr",

    "Latitude": "46.9504846",

    "Longitude": "2.944948"
  },

  {
    "name": "U.S. HERRY",

    "adresse": "18140 HERRY",

    "mail": "523934@lcfoot.fr",

    "Latitude": "47.215668",

    "Longitude": "2.951815"
  },

  {
    "name": "FOY. RUR. IDS ST.ROCH",

    "adresse": "LE BOURG 18170 IDS ST ROCH",

    "mail": "553759@lcfoot.fr",

    "Latitude": "46.7076628",

    "Longitude": "2.2388205"
  },

  {
    "name": "F.C. JARS",

    "adresse": "18260 JARS",

    "mail": "529038@lcfoot.fr",

    "Latitude": "47.396747",

    "Longitude": "2.684072"
  },

  {
    "name": "AV. DE LA SEPTAINE SAVIGNY-SOYE",

    "adresse": "18390 SAVIGNY EN SEPTAINE",

    "mail": "551490@lcfoot.fr",

    "Latitude": "47.043864",

    "Longitude": "2.560507"
  },

  {
    "name": "AM. LEREENNE SP.L. LERE",

    "adresse": "18240 LERE",

    "mail": "524269@lcfoot.fr",

    "Latitude": "47.471202",

    "Longitude": "2.872511"
  },

  {
    "name": "U.S. LES AIX RIANS",

    "adresse": "18220 LES AIX D ANGILLON",

    "mail": "548848@lcfoot.fr",

    "Latitude": "47.197817",

    "Longitude": "2.571073"
  },

  {
    "name": "A.S. CANTONALE LEVET",

    "adresse": "18340 LEVET",

    "mail": "510559@lcfoot.fr",

    "Latitude": "46.925337",

    "Longitude": "2.406943"
  },

  {
    "name": "AV. LIGNIERES",

    "adresse": "18160 LIGNIERES",

    "mail": "511654@lcfoot.fr",

    "Latitude": "46.750499",

    "Longitude": "2.176182"
  },

  {
    "name": "O. LOIRE VAL D'AUBOIS",

    "adresse": "18320 BEFFES",

    "mail": "544759@lcfoot.fr",

    "Latitude": "47.092312",

    "Longitude": "3.007085"
  },

  {
    "name": "U.S. LUNERY/ROSIERES",

    "adresse": "STADE DE LUNERY 18400 LUNERY",

    "mail": "544155@lcfoot.fr",

    "Latitude": "46.9377347",

    "Longitude": "2.2659303"
  },

  {
    "name": "U.S.A. LURY S/ ARNON - MEREAU",

    "adresse": "37 bis avenue bel air 18120 MEREAU",

    "mail": "529034@lcfoot.fr",

    "Latitude": "47.1898125",

    "Longitude": "2.0561545"
  },

  {
    "name": "ET.S. MARCAIS",

    "adresse": "18170 MARCAIS",

    "mail": "525264@lcfoot.fr",

    "Latitude": "46.697735",

    "Longitude": "2.367775"
  },

  {
    "name": "ENT.S. MARMAGNE BERRY BOUY",

    "adresse": "PLACE DE L'EGLISE 18500 MARMAGNE",

    "mail": "551465@lcfoot.fr",

    "Latitude": "47.1016875",

    "Longitude": "2.2846885"
  },

  {
    "name": "O. PORTUGAIS MEHUN S/YEVRE",

    "adresse": "18500 MEHUN SUR YEVRE",

    "mail": "527177@lcfoot.fr",

    "Latitude": "47.145637",

    "Longitude": "2.217346"
  },

  {
    "name": "O. MEHUNOIS MEHUN S/YEVRE",

    "adresse": "Place Jean Manceau 18500 MEHUN SUR YEVRE",

    "mail": "505054@lcfoot.fr",

    "Latitude": "47.1451199",

    "Longitude": "2.2174675"
  },

  {
    "name": "ET. S. DE MERY ES BOIS",

    "adresse": "11 GRANDE RUE 18380 MERY ES BOIS",

    "mail": "580952@lcfoot.fr",

    "Latitude": "47.3136294",

    "Longitude": "2.3626668"
  },

  {
    "name": "AM.S. MOROGUES",

    "adresse": "18220 MOROGUES",

    "mail": "529932@lcfoot.fr",

    "Latitude": "47.2412769",

    "Longitude": "2.5960709"
  },

  {
    "name": "O. MORTHOMIERS",

    "adresse": "18570 MORTHOMIERS",

    "mail": "524969@lcfoot.fr",

    "Latitude": "47.0367249",

    "Longitude": "2.278304"
  },

  {
    "name": "U.S. MOULINS S/YEVRE",

    "adresse": "18390 MOULINS SUR YEVRE",

    "mail": "524570@lcfoot.fr",

    "Latitude": "47.083748",

    "Longitude": "2.516777"
  },

  {
    "name": "U.S. NANCAY-NEUVY VOUZERON",

    "adresse": "18330 NANCAY",

    "mail": "542541@lcfoot.fr",

    "Latitude": "47.350603",

    "Longitude": "2.1958289"
  },

  {
    "name": "F.C. NERONDES",

    "adresse": "18350 NERONDES",

    "mail": "518761@lcfoot.fr",

    "Latitude": "46.997948",

    "Longitude": "2.818766"
  },

  {
    "name": "NEUVY VETERANS FOOTBALL",

    "adresse": "18330 NEUVY SUR BARANGEON",

    "mail": "860585@lcfoot.fr",

    "Latitude": "47.315155",

    "Longitude": "2.2537379"
  },

  {
    "name": "FOY.S. PARASSY",

    "adresse": "18220 PARASSY",

    "mail": "523772@lcfoot.fr",

    "Latitude": "47.232885",

    "Longitude": "2.546874"
  },

  {
    "name": "U.S. PLAIMPIED GIVAUDINS",

    "adresse": "18340 PLAIMPIED GIVAUDINS",

    "mail": "529940@lcfoot.fr",

    "Latitude": "46.996674",

    "Longitude": "2.455291"
  },

  {
    "name": "U.S. PLOU",

    "adresse": "BROUILLAMNON 18290 PLOU",

    "mail": "529943@lcfoot.fr",

    "Latitude": "47.015212",

    "Longitude": "2.15512"
  },

  {
    "name": "A.S. PREVERANGEOISE PREVERANGES",

    "adresse": "18370 PREVERANGES",

    "mail": "535034@lcfoot.fr",

    "Latitude": "46.435863",

    "Longitude": "2.250444"
  },

  {
    "name": "ET.S. SANCOINS",

    "adresse": "18600 SANCOINS",

    "mail": "504978@lcfoot.fr",

    "Latitude": "46.831017",

    "Longitude": "2.919734"
  },

  {
    "name": "ENT. SAVIGNY BOULLERET",

    "adresse": "18240 SAVIGNY EN SANCERRE",

    "mail": "546492@lcfoot.fr",

    "Latitude": "47.441623",

    "Longitude": "2.808783"
  },

  {
    "name": "A.S. SOULANGIS",

    "adresse": "18220 SOULANGIS",

    "mail": "534018@lcfoot.fr",

    "Latitude": "47.186696",

    "Longitude": "2.517544"
  },

  {
    "name": "A.S. ST AMANDOISE ST. AMAND MONTR",

    "adresse": "135 RUE HUGUES LAPAIRE 18200 ST AMAND MONTROND",

    "mail": "505034@lcfoot.fr",

    "Latitude": "46.7358316",

    "Longitude": "2.5051142"
  },

  {
    "name": "F.C. ST. DOULCHARD",

    "adresse": "12 B avenue du general de GAULLE stade des VERDINS 18230 ST DOULCHARD",

    "mail": "505015@lcfoot.fr",

    "Latitude": "47.1030126",

    "Longitude": "2.3732307"
  },

  {
    "name": "U.S. ST. FLORENT S/CHER",

    "adresse": "Place de la République 18400 ST FLORENT SUR CHER",

    "mail": "505026@lcfoot.fr",

    "Latitude": "46.9929705",

    "Longitude": "2.2445893"
  },

  {
    "name": "J.S. LA MONTAGNE ST. GEORGES PREE",

    "adresse": "4.chemin des champs du pont la Gouacherie 18100 ST GEORGES SUR LA PREE",

    "mail": "526150@lcfoot.fr",

    "Latitude": "47.2264973",

    "Longitude": "1.9262809"
  },

  {
    "name": "A.S. ST. GEORGES DE POISIEUX",

    "adresse": "18200 ST GEORGES DE POISIEUX",

    "mail": "533409@lcfoot.fr",

    "Latitude": "46.687989",

    "Longitude": "2.478477"
  },

  {
    "name": "A.S. ST. GERMAIN DU PUY",

    "adresse": "RUE CHARLES DE FOUCAULT 18390 ST GERMAIN DU PUY",

    "mail": "511286@lcfoot.fr",

    "Latitude": "47.1002606",

    "Longitude": "2.4877143"
  },

  {
    "name": "AM.S. DU FOY.RUR. ST. HILAIRE",

    "adresse": "5 route de St Georges 18100 ST HILAIRE DE COURT",

    "mail": "520710@lcfoot.fr",

    "Latitude": "47.2063453",

    "Longitude": "2.0193433"
  },

  {
    "name": "U.S. ST. JUST",

    "adresse": "18340 ST JUST",

    "mail": "516878@lcfoot.fr",

    "Latitude": "46.992162",

    "Longitude": "2.50974"
  },

  {
    "name": "U.S. STE. SOLANGE",

    "adresse": "18220 STE SOLANGE",

    "mail": "525436@lcfoot.fr",

    "Latitude": "47.134273",

    "Longitude": "2.54699"
  },

  {
    "name": "F.C. LE SUBDRAY",

    "adresse": "18570 LE SUBDRAY",

    "mail": "539138@lcfoot.fr",

    "Latitude": "47.010805",

    "Longitude": "2.294142"
  },

  {
    "name": "R.C. TORTERON",

    "adresse": "18320 TORTERON",

    "mail": "548287@lcfoot.fr",

    "Latitude": "47.02391",

    "Longitude": "2.9628169"
  },

  {
    "name": "ENT.S. TROUY",

    "adresse": "Place du 8 mai 1945 18570 TROUY",

    "mail": "519060@lcfoot.fr",

    "Latitude": "47.008896",

    "Longitude": "2.355825"
  },

  {
    "name": "ETOILE SPORTIVE TROUY VETERANS",

    "adresse": "18570 TROUY",

    "mail": "548452@lcfoot.fr",

    "Latitude": "47.008896",

    "Longitude": "2.355825"
  },

  {
    "name": "U.S. CHATEAUMEILLANT",

    "adresse": "18370 CHATEAUMEILLANT",

    "mail": "504925@lcfoot.fr",

    "Latitude": "46.562103",

    "Longitude": "2.2018749"
  },

  {
    "name": "C.S. VAILLY S/SAULDRE",

    "adresse": "22 rte de dampierre 18260 VAILLY SUR SAULDRE",

    "mail": "505077@lcfoot.fr",

    "Latitude": "47.4581693",

    "Longitude": "2.6395835"
  },

  {
    "name": "F.C. VASSELAY ST ELOY DE GY",

    "adresse": "1 place Louis DUCOUX 18110 VASSELAY",

    "mail": "581740@lcfoot.fr",

    "Latitude": "47.158036",

    "Longitude": "2.3879055"
  },

  {
    "name": "VIERZON F. C.",

    "adresse": "72 RUE HENRI BARBUSSE 18100 VIERZON",

    "mail": "581331@lcfoot.fr",

    "Latitude": "47.2356127",

    "Longitude": "2.0656965"
  },

  {
    "name": "C.S. VIGNOUX S/BARANGEON",

    "adresse": "Rue de la Republique 18500 VIGNOUX SUR BARANGEON",

    "mail": "542367@lcfoot.fr",

    "Latitude": "47.1978619",

    "Longitude": "2.1748227"
  },

  {
    "name": "A.S. TOURY-JANVILLE",

    "adresse": "15 PLACE DU MARTROI 28310 JANVILLE",

    "mail": "582646@lcfoot.fr",

    "Latitude": "48.2001035",

    "Longitude": "1.8829094"
  },

  {
    "name": "U.S. ALLUYES",

    "adresse": "28800 ALLUYES",

    "mail": "523767@lcfoot.fr",

    "Latitude": "48.229674",

    "Longitude": "1.366219"
  },

  {
    "name": "AM. EPERNON",

    "adresse": "1 ROUTE DE GALLARDON 28230 EPERNON",

    "mail": "504907@lcfoot.fr",

    "Latitude": "48.6052776",

    "Longitude": "1.6731417"
  },

  {
    "name": "AM.S. ANET",

    "adresse": "RUE DIANE DE POITIERS 28260 ANET",

    "mail": "519545@lcfoot.fr",

    "Latitude": "48.8565299",

    "Longitude": "1.4391746"
  },

  {
    "name": "AM.S. NOGENT LE ROTROU",

    "adresse": "B.P. 30156 28404 NOGENT LE ROTROU CEDEX",

    "mail": "504849@lcfoot.fr",

    "Latitude": "48.321762",

    "Longitude": "0.8217759"
  },

  {
    "name": "AMILLY F.C.",

    "adresse": "28300 AMILLY",

    "mail": "528148@lcfoot.fr",

    "Latitude": "48.44368",

    "Longitude": "1.396017"
  },

  {
    "name": "C.S. ANGERVILLE PUSSAY",

    "adresse": "34 rue nationale bp 29 91670 ANGERVILLE",

    "mail": "500733@lcfoot.fr",

    "Latitude": "48.3102044",

    "Longitude": "1.9975096"
  },

  {
    "name": "ENT.S. ARROU CHATILLON COURTALAI",

    "adresse": "12 GRANDE RUE 28290 ARROU",

    "mail": "522599@lcfoot.fr",

    "Latitude": "48.097697",

    "Longitude": "1.121104"
  },

  {
    "name": "AS RECHÈVRES",

    "adresse": "28000 CHARTRES",

    "mail": "560241@lcfoot.fr",

    "Latitude": "48.443854",

    "Longitude": "1.489012"
  },

  {
    "name": "C.SP. AUNAY SS/AUNEAU",

    "adresse": "place de la mairie 28700 AUNAY SOUS AUNEAU",

    "mail": "535038@lcfoot.fr",

    "Latitude": "48.4359732",

    "Longitude": "1.7110813"
  },

  {
    "name": "AUNEAU F.C.",

    "adresse": "9 Avenue Gambetta 28700 AUNEAU",

    "mail": "524966@lcfoot.fr",

    "Latitude": "48.4632507",

    "Longitude": "1.7754782"
  },

  {
    "name": "MUNI SP. AUTHON DU PERCHE",

    "adresse": "1 Place de la Mairie 28330 AUTHON DU PERCHE",

    "mail": "521730@lcfoot.fr",

    "Latitude": "48.1949647",

    "Longitude": "0.8967694"
  },

  {
    "name": "AV. YMONVILLE",

    "adresse": "28150 YMONVILLE",

    "mail": "505175@lcfoot.fr",

    "Latitude": "48.261404",

    "Longitude": "1.74541"
  },

  {
    "name": "A.C. BAILLEAU LE PIN",

    "adresse": "5 bis rue royale 28360 LUPLANTE",

    "mail": "526746@lcfoot.fr",

    "Latitude": "48.3091226",

    "Longitude": "1.3704857"
  },

  {
    "name": "ENT.S. BEAUCERONNE",

    "adresse": "70 rue nationale 28140 ORGERES EN BEAUCE",

    "mail": "552017@lcfoot.fr",

    "Latitude": "48.145775",

    "Longitude": "1.6807583"
  },

  {
    "name": "F.C. BEAUVOIR",

    "adresse": "2 rue Andre Perdrix 28200 CHATEAUDUN",

    "mail": "582397@lcfoot.fr",

    "Latitude": "48.0806756",

    "Longitude": "1.3471826"
  },

  {
    "name": "U.S. DE BELHOMERT",

    "adresse": "RUE DE L'ABBAYE 28240 BELHOMERT GUEHOUVILLE",

    "mail": "520015@lcfoot.fr",

    "Latitude": "48.5019831",

    "Longitude": "1.0575842"
  },

  {
    "name": "A.S. BERCHERES LES PIERRES",

    "adresse": "52 RUE DES CARRIERES 28630 BERCHERES LES PIERRES",

    "mail": "529644@lcfoot.fr",

    "Latitude": "48.3822319",

    "Longitude": "1.5575219"
  },

  {
    "name": "BEVILLE S.",

    "adresse": "28700 BEVILLE LE COMTE",

    "mail": "520136@lcfoot.fr",

    "Latitude": "48.435982",

    "Longitude": "1.713317"
  },

  {
    "name": "A.S.C. BOUTIGNY PROUAIS",

    "adresse": "4 RUE DU ROSAIRE 28410 BOUTIGNY PROUAIS",

    "mail": "527559@lcfoot.fr",

    "Latitude": "48.7447007",

    "Longitude": "1.5875145"
  },

  {
    "name": "U.S. BREZOLLES",

    "adresse": "1 RUE NOTRE DAME 28270 BREZOLLES",

    "mail": "517344@lcfoot.fr",

    "Latitude": "48.6900917",

    "Longitude": "1.0725298"
  },

  {
    "name": "U.S. BREZOLLES",

    "adresse": "1 RUE NOTRE DAME 28270 BREZOLLES",

    "mail": "517344@lcfoot.fr",

    "Latitude": "48.6900917",

    "Longitude": "1.0725298"
  },

  {
    "name": "ET. BROU",

    "adresse": "28160 BROU",

    "mail": "505090@lcfoot.fr",

    "Latitude": "48.211341",

    "Longitude": "1.166094"
  },

  {
    "name": "C'CHARTRES FOOTBALL",

    "adresse": "3 BIS RUE JEAN MONNET 28000 CHARTRES",

    "mail": "582560@lcfoot.fr",

    "Latitude": "48.4498764",

    "Longitude": "1.503724"
  },

  {
    "name": "C.S. MAINVILLIERS FOOTBALL",

    "adresse": "RUE PIERRE DE COUBERTIN 28300 MAINVILLIERS",

    "mail": "516125@lcfoot.fr",

    "Latitude": "48.4470186",

    "Longitude": "1.4691444"
  },

  {
    "name": "FOY.J. CHAMPHOL",

    "adresse": "15 RUE DE LA MAIRIE 28300 CHAMPHOL",

    "mail": "520961@lcfoot.fr",

    "Latitude": "48.4690043",

    "Longitude": "1.4998646"
  },

  {
    "name": "AVENIRS DIVERS CHARTRAINS",

    "adresse": "28000 CHARTRES",

    "mail": "552390@lcfoot.fr",

    "Latitude": "48.443854",

    "Longitude": "1.489012"
  },

  {
    "name": "CTE A NLE PORTUGAISE CHARTRES",

    "adresse": "28000 CHARTRES",

    "mail": "529647@lcfoot.fr",

    "Latitude": "48.443854",

    "Longitude": "1.489012"
  },

  {
    "name": "A. MADELEINE SP. DETEN. CHARTRES",

    "adresse": "28000 CHARTRES",

    "mail": "529043@lcfoot.fr",

    "Latitude": "48.443854",

    "Longitude": "1.489012"
  },

  {
    "name": "O.C. CHATEAUDUN",

    "adresse": "rue Abel Méret 28200 CHATEAUDUN",

    "mail": "500551@lcfoot.fr",

    "Latitude": "48.07873",

    "Longitude": "1.322438"
  },

  {
    "name": "AV.S. CHATEAUNEUF EN THYMERAIS",

    "adresse": "2 rue hubert latham 28170 CHATEAUNEUF EN THYMERAIS",

    "mail": "504860@lcfoot.fr",

    "Latitude": "48.5809982",

    "Longitude": "1.2420935"
  },

  {
    "name": "C.O. DE CHERISY",

    "adresse": "50 RUE CHARLES DE GAULLE 28500 CHERISY",

    "mail": "529648@lcfoot.fr",

    "Latitude": "48.7468503",

    "Longitude": "1.4244852"
  },

  {
    "name": "AM.S. CLEVILLIERS BAILLEAU L EVE",

    "adresse": "28300 CLEVILLIERS",

    "mail": "504939@lcfoot.fr",

    "Latitude": "48.543237",

    "Longitude": "1.38867"
  },

  {
    "name": "U.S. CLOYES DROUE",

    "adresse": "VAL FLEURI 28220 CLOYES SUR LE LOIR",

    "mail": "544959@lcfoot.fr",

    "Latitude": "48.002478",

    "Longitude": "1.233193"
  },

  {
    "name": "AM. COURVILLE S/EURE",

    "adresse": "Rue Pannard 28190 COURVILLE SUR EURE",

    "mail": "504897@lcfoot.fr",

    "Latitude": "48.4484296",

    "Longitude": "1.2396228"
  },

  {
    "name": "DAMMARIE FOOT BOIS GUESLIN",

    "adresse": "28360 DAMMARIE",

    "mail": "548860@lcfoot.fr",

    "Latitude": "48.343929",

    "Longitude": "1.493526"
  },

  {
    "name": "AM.S. DONNEMAIN",

    "adresse": "28200 DONNEMAIN ST MAMES",

    "mail": "505188@lcfoot.fr",

    "Latitude": "48.106777",

    "Longitude": "1.3687419"
  },

  {
    "name": "A. PORT SP.L. DREUX",

    "adresse": "28100 DREUX",

    "mail": "531732@lcfoot.fr",

    "Latitude": "48.736134",

    "Longitude": "1.370889"
  },

  {
    "name": "A. CLUB SPORTIF DREUX DE FOOTBALL",

    "adresse": "14 PLACE DES ORIELS 28100 DREUX",

    "mail": "534014@lcfoot.fr",

    "Latitude": "48.7383621",

    "Longitude": "1.3905072"
  },

  {
    "name": "A.S. TOUT HORIZON DREUX",

    "adresse": "41 rue Hoche 28100 DREUX",

    "mail": "553200@lcfoot.fr",

    "Latitude": "48.722583",

    "Longitude": "1.3821842"
  },

  {
    "name": "F.C. DROUAIS DREUX",

    "adresse": "28100 DREUX",

    "mail": "542198@lcfoot.fr",

    "Latitude": "48.736134",

    "Longitude": "1.370889"
  },

  {
    "name": "ESPOIR FOOTBALL FÉMININ DUROCASSE",

    "adresse": "28100 DREUX",

    "mail": "760506@lcfoot.fr",

    "Latitude": "48.736134",

    "Longitude": "1.370889"
  },

  {
    "name": "AV.S. LA BAZOCHE GOUET",

    "adresse": "PLACE DE LA MAIRIE 28330 LA BAZOCHE GOUET",

    "mail": "505129@lcfoot.fr",

    "Latitude": "48.1385475",

    "Longitude": "0.9786285"
  },

  {
    "name": "CTRE EDUC.PHYS. LA FERTE VIDAME",

    "adresse": "18 rue de Laborde 28340 LA FERTE VIDAME",

    "mail": "514338@lcfoot.fr",

    "Latitude": "48.611497",

    "Longitude": "0.9007844"
  },

  {
    "name": "ET.S. JOUY ST PREST",

    "adresse": "4 PLACE DE L'EGLISE 28300 JOUY",

    "mail": "521926@lcfoot.fr",

    "Latitude": "48.5118231",

    "Longitude": "1.5506078"
  },

  {
    "name": "U.S. PONTOISE ST. DENIS LES PONTS",

    "adresse": "7 Les Goislardières 28200 LANNERAY",

    "mail": "526748@lcfoot.fr",

    "Latitude": "48.1080027",

    "Longitude": "1.2486027"
  },

  {
    "name": "UNI.POP. ILLIERS COMBRAY",

    "adresse": "route de courville 28120 ILLIERS COMBRAY",

    "mail": "504910@lcfoot.fr",

    "Latitude": "48.305356",

    "Longitude": "1.240848"
  },

  {
    "name": "ENT.S. MAINTENON PIERRES F.",

    "adresse": "28130 PIERRES",

    "mail": "504919@lcfoot.fr",

    "Latitude": "48.591426",

    "Longitude": "1.566051"
  },

  {
    "name": "ENT.S. NOGENT LE ROI",

    "adresse": "1 Rue de la Porte Chartraine 28210 NOGENT LE ROI",

    "mail": "512690@lcfoot.fr",

    "Latitude": "48.6480535",

    "Longitude": "1.5307929"
  },

  {
    "name": "F.C. REMOIS ST. REMY SUR AVRE",

    "adresse": "28380 ST REMY SUR AVRE",

    "mail": "545810@lcfoot.fr",

    "Latitude": "48.7475787",

    "Longitude": "1.2454981"
  },

  {
    "name": "F.C. ST. GEORGES S/EURE",

    "adresse": "RUE DU 17 JUIN 1940 28190 ST GEORGES SUR EURE",

    "mail": "518760@lcfoot.fr",

    "Latitude": "48.4137378",

    "Longitude": "1.3655683"
  },

  {
    "name": "FOOTBALL CLUB LES BORDS DE L'EURE",

    "adresse": "28630 LE COUDRAY",

    "mail": "560553@lcfoot.fr",

    "Latitude": "48.422448",

    "Longitude": "1.5033478"
  },

  {
    "name": "FOOT EN SALLE 28",

    "adresse": "28350 ST LUBIN DES JONCHERETS",

    "mail": "560242@lcfoot.fr",

    "Latitude": "48.76764",

    "Longitude": "1.194323"
  },

  {
    "name": "F.C. DU PERCHE SENONCHOIS",

    "adresse": "STADE : Avenue de Badouleau 28250 SENONCHES",

    "mail": "552742@lcfoot.fr",

    "Latitude": "48.5567049",

    "Longitude": "1.0313112"
  },

  {
    "name": "AM. S. FONTAINE LA GUYON",

    "adresse": "2 RUE CHARLES PEGUY 28190 FONTAINE LA GUYON",

    "mail": "547678@lcfoot.fr",

    "Latitude": "48.4740447",

    "Longitude": "1.3129074"
  },

  {
    "name": "AM. GALLARDON",

    "adresse": "28320 GALLARDON",

    "mail": "509578@lcfoot.fr",

    "Latitude": "48.524831",

    "Longitude": "1.689383"
  },

  {
    "name": "A.S. HANCHES",

    "adresse": "Rue de la Barre 28130 HANCHES",

    "mail": "529939@lcfoot.fr",

    "Latitude": "48.6003969",

    "Longitude": "1.6425528"
  },

  {
    "name": "LA GAULOISE LE GAULT ST DENIS",

    "adresse": "28800 LE GAULT ST DENIS",

    "mail": "504945@lcfoot.fr",

    "Latitude": "48.243881",

    "Longitude": "1.484329"
  },

  {
    "name": "F.C. LEVES",

    "adresse": "28300 LEVES",

    "mail": "519137@lcfoot.fr",

    "Latitude": "48.469994",

    "Longitude": "1.480882"
  },

  {
    "name": "FOY.RUR.EDUC.POP. LOGRON",

    "adresse": "28200 LOGRON",

    "mail": "531728@lcfoot.fr",

    "Latitude": "48.147655",

    "Longitude": "1.262087"
  },

  {
    "name": "AM. DE LUCE FOOTBALL",

    "adresse": "RUE JEAN BOUDRIE 28110 LUCE",

    "mail": "505133@lcfoot.fr",

    "Latitude": "48.4416495",

    "Longitude": "1.4537086"
  },

  {
    "name": "F.C. LUCE OUEST",

    "adresse": "108 rue de la république 28110 LUCE",

    "mail": "528291@lcfoot.fr",

    "Latitude": "48.439669",

    "Longitude": "1.4614936"
  },

  {
    "name": "LUISANT A.C.",

    "adresse": "98 Rue Des Terres Douces Chez M. SCHULER Patrick 28600 LUISANT",

    "mail": "505161@lcfoot.fr",

    "Latitude": "48.4231765",

    "Longitude": "1.4629492"
  },

  {
    "name": "A. DU LURAY F.C.",

    "adresse": "14 RUE DE DREUX 28500 LURAY",

    "mail": "582519@lcfoot.fr",

    "Latitude": "48.7236196",

    "Longitude": "1.3946618"
  },

  {
    "name": "F.C. LUTZ EN DUNOIS",

    "adresse": "29 RUE ROBERT POTHIER 28200 LUTZ EN DUNOIS",

    "mail": "534006@lcfoot.fr",

    "Latitude": "48.0595068",

    "Longitude": "1.4137529"
  },

  {
    "name": "STE AM. MARBOUE",

    "adresse": "12. Rue du Docteur PEAN 28200 MARBOUE",

    "mail": "505210@lcfoot.fr",

    "Latitude": "48.1130545",

    "Longitude": "1.3316643"
  },

  {
    "name": "ET. MARSAUCEUX",

    "adresse": "17 rue des mairies MARSAUCEUX 28500 MEZIERES EN DROUAIS",

    "mail": "521499@lcfoot.fr",

    "Latitude": "48.7240205",

    "Longitude": "1.4397744"
  },

  {
    "name": "F. C. DE NOGENT LE PHAYE",

    "adresse": "6 RUE DU TERTRE 28630 NOGENT LE PHAYE",

    "mail": "529927@lcfoot.fr",

    "Latitude": "48.446655",

    "Longitude": "1.5771253"
  },

  {
    "name": "RACING CLUB BÛ ABONDANT",

    "adresse": "28410 BU",

    "mail": "560503@lcfoot.fr",

    "Latitude": "48.800542",

    "Longitude": "1.501719"
  },

  {
    "name": "U.S.AM. SAULNIERES",

    "adresse": "28500 SAULNIERES",

    "mail": "504863@lcfoot.fr",

    "Latitude": "48.658526",

    "Longitude": "1.27365"
  },

  {
    "name": "AM. SOURS",

    "adresse": "28630 SOURS",

    "mail": "505146@lcfoot.fr",

    "Latitude": "48.4125889",

    "Longitude": "1.598142"
  },

  {
    "name": "ST. LOUPEEN LA LOUPE",

    "adresse": "1 Rue de l'Europe 28240 MEAUCE 28240 LA LOUPE",

    "mail": "510326@lcfoot.fr",

    "Latitude": "48.4799789",

    "Longitude": "1.0025291"
  },

  {
    "name": "STE S. ST. SYMPHORIEN LE CHATEAU",

    "adresse": "28700 ST SYMPHORIEN LE CHATEAU",

    "mail": "526500@lcfoot.fr",

    "Latitude": "48.516677",

    "Longitude": "1.75893"
  },

  {
    "name": "A.S. THIRON GARDAIS",

    "adresse": "28480 THIRON GARDAIS",

    "mail": "527562@lcfoot.fr",

    "Latitude": "48.311338",

    "Longitude": "0.995197"
  },

  {
    "name": "F.C. TREMBLAY LES VILLAGES",

    "adresse": "7 ROUTE DE CHATEAUNEUF 28170 TREMBLAY LES VILLAGES",

    "mail": "532177@lcfoot.fr",

    "Latitude": "48.6004018",

    "Longitude": "1.3794182"
  },

  {
    "name": "AM.S. TREON",

    "adresse": "28500 TREON",

    "mail": "545549@lcfoot.fr",

    "Latitude": "48.676486",

    "Longitude": "1.326941"
  },

  {
    "name": "U. S. VALLÉE DU LOIR",

    "adresse": "Mairie de Bonneval 28800 BONNEVAL",

    "mail": "581824@lcfoot.fr",

    "Latitude": "48.1814385",

    "Longitude": "1.3853589"
  },

  {
    "name": "U. PUEBLOS DE ESPANA VERNOUILLET",

    "adresse": "28500 MARVILLE MOUTIERS BRULE",

    "mail": "533190@lcfoot.fr",

    "Latitude": "48.674302",

    "Longitude": "1.377961"
  },

  {
    "name": "F.C. VETERANS DE SAINTE GEMME MORONVAL",

    "adresse": "6 RUE DES CHENES BOIS LE ROI 28500 VERNOUILLET",

    "mail": "553049@lcfoot.fr",

    "Latitude": "48.716614",

    "Longitude": "1.334321"
  },

  {
    "name": "U. VET.VAL. D'AVRE ST. REMY S/AVR",

    "adresse": "RUE DU GENERAL DE GAULLE 28380 ST REMY SUR AVRE",

    "mail": "537739@lcfoot.fr",

    "Latitude": "48.7621226",

    "Longitude": "1.2398956"
  },

  {
    "name": "A.S. VILLEMEUX S/EURE",

    "adresse": "Grande rue 28210 VILLEMEUX SUR EURE",

    "mail": "504942@lcfoot.fr",

    "Latitude": "48.6728081",

    "Longitude": "1.4627621"
  },

  {
    "name": "U.S. VOVEENNE FOOT",

    "adresse": "5 rue roger gommier 28150 LES VILLAGES VOVEENS",

    "mail": "504971@lcfoot.fr",

    "Latitude": "48.2724795",

    "Longitude": "1.6273708"
  },

  {
    "name": "AM. S. DE BRION",

    "adresse": "1 ROUTE D'ISSOUDUN 36110 BRION",

    "mail": "580513@lcfoot.fr",

    "Latitude": "46.9570389",

    "Longitude": "1.7290356"
  },

  {
    "name": "A. S. CHABRIS FOOTBALL",

    "adresse": "9 PL ALBERT BOIVIN 36210 CHABRIS",

    "mail": "504888@lcfoot.fr",

    "Latitude": "47.254967",

    "Longitude": "1.6538889"
  },

  {
    "name": "A.S. LES CRAQUELINS CHATEAUROUX",

    "adresse": "RUE CHARLES CROS 36000 CHATEAUROUX",

    "mail": "851775@lcfoot.fr",

    "Latitude": "46.793065",

    "Longitude": "1.719392"
  },

  {
    "name": "A.S. INGRANDES",

    "adresse": "5 Chemin de la Fosse Gaultier 36300 INGRANDES",

    "mail": "528794@lcfoot.fr",

    "Latitude": "46.602902",

    "Longitude": "0.969408"
  },

  {
    "name": "U.S. AIGURANDE",

    "adresse": "route de CHATEAUROUX 36140 AIGURANDE",

    "mail": "504914@lcfoot.fr",

    "Latitude": "46.4340021",

    "Longitude": "1.8288693"
  },

  {
    "name": "ALLIANCE C.S. BUZANCAIS",

    "adresse": "36500 BUZANCAIS",

    "mail": "504869@lcfoot.fr",

    "Latitude": "46.888616",

    "Longitude": "1.421823"
  },

  {
    "name": "LA PATRIOTE AMBRAULT",

    "adresse": "36120 AMBRAULT",

    "mail": "518708@lcfoot.fr",

    "Latitude": "46.785747",

    "Longitude": "1.961199"
  },

  {
    "name": "A.S. ANJOUIN",

    "adresse": "36210 ANJOUIN",

    "mail": "535048@lcfoot.fr",

    "Latitude": "47.189785",

    "Longitude": "1.801483"
  },

  {
    "name": "A.S. ARDENTES",

    "adresse": "Rue des grands Buissons 36120 ARDENTES",

    "mail": "500417@lcfoot.fr",

    "Latitude": "46.7405141",

    "Longitude": "1.8191509"
  },

  {
    "name": "U.S. ARGY",

    "adresse": "36500 ARGY",

    "mail": "518707@lcfoot.fr",

    "Latitude": "46.939238",

    "Longitude": "1.43686"
  },

  {
    "name": "ENT. ARPHEUILLES CLION SAULNAY",

    "adresse": "36700 CLION",

    "mail": "548217@lcfoot.fr",

    "Latitude": "46.941163",

    "Longitude": "1.232358"
  },

  {
    "name": "A. S. DE PAUDY",

    "adresse": "36260 PAUDY",

    "mail": "564188@lcfoot.fr",

    "Latitude": "47.038753",

    "Longitude": "1.919595"
  },

  {
    "name": "ATHLÉTICO CHÂTEAUROUX",

    "adresse": "36000 CHATEAUROUX",

    "mail": "564097@lcfoot.fr",

    "Latitude": "46.8031198",

    "Longitude": "1.6926546"
  },

  {
    "name": "U.S. AZAY LE FERRON",

    "adresse": "7 PLACE DE VERDUN 36290 AZAY LE FERRON",

    "mail": "546477@lcfoot.fr",

    "Latitude": "46.8518507",

    "Longitude": "1.069601"
  },

  {
    "name": "F.C. BAS BERRY",

    "adresse": "LE BOURG 36400 CHASSIGNOLLES",

    "mail": "551976@lcfoot.fr",

    "Latitude": "46.5408879",

    "Longitude": "1.9385939"
  },

  {
    "name": "STE SP. BELABRE",

    "adresse": "8. AVENUE JEAN JAURES Mairie 36370 BELABRE",

    "mail": "504994@lcfoot.fr",

    "Latitude": "46.5513864",

    "Longitude": "1.1572735"
  },

  {
    "name": "U.S. LA CHATRE",

    "adresse": "CHEMIN DE LA JUSTICE 36400 LA CHATRE",

    "mail": "504955@lcfoot.fr",

    "Latitude": "46.581574",

    "Longitude": "1.973452"
  },

  {
    "name": "A.S. LES BORDES",

    "adresse": "rue des Davignons 36100 LES BORDES",

    "mail": "521932@lcfoot.fr",

    "Latitude": "46.9807275",

    "Longitude": "1.9723119"
  },

  {
    "name": "U.S. BOUGES LE CHATEAU",

    "adresse": "36110 BOUGES LE CHATEAU",

    "mail": "518972@lcfoot.fr",

    "Latitude": "47.0408929",

    "Longitude": "1.672736"
  },

  {
    "name": "A.S. EDUC. BRIANTES",

    "adresse": "4 PLACE JEAN MOULIN 36400 BRIANTES",

    "mail": "540400@lcfoot.fr",

    "Latitude": "46.5580081",

    "Longitude": "2.0232386"
  },

  {
    "name": "U.S. BUXEUIL",

    "adresse": "36150 BUXEUIL",

    "mail": "521071@lcfoot.fr",

    "Latitude": "47.132904",

    "Longitude": "1.686243"
  },

  {
    "name": "ECOLE ET CLUB DE FOOTBALL BOUZANNE VALLÉE NOIRE",

    "adresse": "Mairie place Georges Clémenceau 36230 NEUVY ST SEPULCHRE",

    "mail": "581385@lcfoot.fr",

    "Latitude": "46.596211",

    "Longitude": "1.8074812"
  },

  {
    "name": "LA BERRICHONNE DE CHATEAUROUX",

    "adresse": "BP 345 36000 CHATEAUROUX",

    "mail": "500098@lcfoot.fr",

    "Latitude": "46.8031198",

    "Longitude": "1.6926546"
  },

  {
    "name": "ET. CHATEAUROUX",

    "adresse": "3 RUE D'AUVERGNE 36000 CHATEAUROUX",

    "mail": "504993@lcfoot.fr",

    "Latitude": "46.8053156",

    "Longitude": "1.6835546"
  },

  {
    "name": "CHATEAUROUX F.C.",

    "adresse": "36330 LE POINCONNET",

    "mail": "563887@lcfoot.fr",

    "Latitude": "46.764548",

    "Longitude": "1.718675"
  },

  {
    "name": "A.S. EUROSTYLE CHATEAUROUX",

    "adresse": "28 ALLEE DES SABLONS 36000 CHATEAUROUX",

    "mail": "853505@lcfoot.fr",

    "Latitude": "46.7984257",

    "Longitude": "1.737875"
  },

  {
    "name": "SPARTAK CHATEAUROUX",

    "adresse": "13 RUE CHAUVIGNY 36000 CHATEAUROUX",

    "mail": "590298@lcfoot.fr",

    "Latitude": "46.8122283",

    "Longitude": "1.7041966"
  },

  {
    "name": "U.S. CIRON",

    "adresse": "36300 CIRON",

    "mail": "516928@lcfoot.fr",

    "Latitude": "46.6269909",

    "Longitude": "1.245468"
  },

  {
    "name": "STE S. CLUIS",

    "adresse": "36340 CLUIS",

    "mail": "504905@lcfoot.fr",

    "Latitude": "46.5439269",

    "Longitude": "1.749891"
  },

  {
    "name": "A.S. COINGS CERE",

    "adresse": "36130 COINGS",

    "mail": "590695@lcfoot.fr",

    "Latitude": "46.8862809",

    "Longitude": "1.714758"
  },

  {
    "name": "CONCREMIERS FOOTBALL CLUB",

    "adresse": "36300 CONCREMIERS",

    "mail": "560406@lcfoot.fr",

    "Latitude": "46.5967709",

    "Longitude": "1.016823"
  },

  {
    "name": "F.C. DU FONTCHOIR CHATEAUROUX",

    "adresse": "36000 CHATEAUROUX",

    "mail": "546126@lcfoot.fr",

    "Latitude": "46.8031198",

    "Longitude": "1.6926546"
  },

  {
    "name": "CHATEAUROUX METROPOLE F.C.",

    "adresse": "3 RUE SIMONE WEIL 36000 CHATEAUROUX",

    "mail": "582040@lcfoot.fr",

    "Latitude": "46.8087695",

    "Longitude": "1.6757989"
  },

  {
    "name": "F.C. DEOLOIS DEOLS",

    "adresse": "36130 DEOLS",

    "mail": "504896@lcfoot.fr",

    "Latitude": "46.825648",

    "Longitude": "1.700974"
  },

  {
    "name": "F.C. DIORS",

    "adresse": "2 rue des ecoles 36130 DIORS",

    "mail": "548187@lcfoot.fr",

    "Latitude": "46.8255772",

    "Longitude": "1.8141594"
  },

  {
    "name": "SP.C. VATAN",

    "adresse": "RUE DE LA CAIGNAUDERIE 36150 VATAN",

    "mail": "504885@lcfoot.fr",

    "Latitude": "47.074794",

    "Longitude": "1.816891"
  },

  {
    "name": "GROUPEMENT VAL DE L'INDRE FOOTBALL 36",

    "adresse": "2 PLACE JEAN JAURES 36320 VILLEDIEU SUR INDRE",

    "mail": "551202@lcfoot.fr",

    "Latitude": "46.8472971",

    "Longitude": "1.5373162"
  },

  {
    "name": "A.S. NEUVY PAILLOUX",

    "adresse": "36100 NEUVY PAILLOUX",

    "mail": "514988@lcfoot.fr",

    "Latitude": "46.8863879",

    "Longitude": "1.858864"
  },

  {
    "name": "ESPOIR CLUB LAIQUE SAINT CHRISTOPHE",

    "adresse": "36000 CHATEAUROUX",

    "mail": "560541@lcfoot.fr",

    "Latitude": "46.8031198",

    "Longitude": "1.6926546"
  },

  {
    "name": "STE S. ECUEILLE",

    "adresse": "36240 ECUEILLE",

    "mail": "524568@lcfoot.fr",

    "Latitude": "47.083915",

    "Longitude": "1.346552"
  },

  {
    "name": "C.S. EGUZON",

    "adresse": "36270 EGUZON CHANTOME",

    "mail": "521075@lcfoot.fr",

    "Latitude": "46.4381863",

    "Longitude": "1.5692119"
  },

  {
    "name": "ENT.S. VINEUIL BRION",

    "adresse": "LES MARDELLES 36110 VINEUIL",

    "mail": "540451@lcfoot.fr",

    "Latitude": "46.9223519",

    "Longitude": "1.6666751"
  },

  {
    "name": "ET.S. POULAINES",

    "adresse": "36210 POULAINES",

    "mail": "505033@lcfoot.fr",

    "Latitude": "47.151962",

    "Longitude": "1.662076"
  },

  {
    "name": "EV.S. ETRECHET",

    "adresse": "RUE SULLY 36120 ETRECHET",

    "mail": "522508@lcfoot.fr",

    "Latitude": "46.777584",

    "Longitude": "1.783819"
  },

  {
    "name": "FOOTBALL CLUB CEAULMONT LES GRANGES",

    "adresse": "36200 CEAULMONT",

    "mail": "560383@lcfoot.fr",

    "Latitude": "46.5231459",

    "Longitude": "1.576964"
  },

  {
    "name": "F.C. LEVROUX",

    "adresse": "36110 LEVROUX",

    "mail": "544727@lcfoot.fr",

    "Latitude": "46.979735",

    "Longitude": "1.614733"
  },

  {
    "name": "F.C. LUANT",

    "adresse": "RUE DU 8 MAI 36350 LUANT",

    "mail": "526408@lcfoot.fr",

    "Latitude": "46.733633",

    "Longitude": "1.558079"
  },

  {
    "name": "F.C. DE LA MARCHE OCCITANE",

    "adresse": "ROUTE DE BOISSIERE 36170 ST BENOIT DU SAULT",

    "mail": "582096@lcfoot.fr",

    "Latitude": "46.4439856",

    "Longitude": "1.4009834"
  },

  {
    "name": "FC SACIERGES ST-MARTIN ST-CIVRAN ROUSSINES PRISSAC",

    "adresse": "20D Chemin du Ch'tit Village Crevant 36130 MONTIERCHAUME",

    "mail": "564142@lcfoot.fr",

    "Latitude": "46.864117",

    "Longitude": "1.789191"
  },

  {
    "name": "FC VALP 36",

    "adresse": "36330 VELLES",

    "mail": "564132@lcfoot.fr",

    "Latitude": "46.688926",

    "Longitude": "1.65052"
  },

  {
    "name": "FOOTBALL CLUB MARTIZAY MEZIERES TOURNON",

    "adresse": "33. route du stade 36220 MARTIZAY",

    "mail": "547636@lcfoot.fr",

    "Latitude": "46.8068325",

    "Longitude": "1.0467943"
  },

  {
    "name": "F.C. ST DENIS DE JOUHET SARZAY",

    "adresse": "4 PLACE DE L'ÉGLISE 36230 ST DENIS DE JOUHET",

    "mail": "582133@lcfoot.fr",

    "Latitude": "46.5310019",

    "Longitude": "1.8689715"
  },

  {
    "name": "FOOTBALL SUD BOUZANNE",

    "adresse": "10 RUE DE LA MAIRIE 36140 MONTCHEVRIER",

    "mail": "560555@lcfoot.fr",

    "Latitude": "46.481026",

    "Longitude": "1.740871"
  },

  {
    "name": "FUTSAL RACING ATHLETIC CLUB",

    "adresse": "36500 CHEZELLES",

    "mail": "560637@lcfoot.fr",

    "Latitude": "46.887656",

    "Longitude": "1.578607"
  },

  {
    "name": "ET.S. FRANCILLON",

    "adresse": "36110 FRANCILLON",

    "mail": "547419@lcfoot.fr",

    "Latitude": "46.94166",

    "Longitude": "1.56207"
  },

  {
    "name": "FUTSAL CLUB DE CHATEAUROUX",

    "adresse": "36000 CHATEAUROUX",

    "mail": "563691@lcfoot.fr",

    "Latitude": "46.8031198",

    "Longitude": "1.6926546"
  },

  {
    "name": "A.S. DE LA MARCHE OCCITANE VAL D'ANGLIN",

    "adresse": "15 rue roland meignien 36370 PRISSAC",

    "mail": "590693@lcfoot.fr",

    "Latitude": "46.5106645",

    "Longitude": "1.3074627"
  },

  {
    "name": "U. S. GATINES",

    "adresse": "MAIRIE DE VALENCAY 36600 VALENCAY",

    "mail": "581422@lcfoot.fr",

    "Latitude": "47.1606951",

    "Longitude": "1.568012"
  },

  {
    "name": "SP.A. ISSOUDUN",

    "adresse": "Route de Bourges 36100 ISSOUDUN",

    "mail": "500120@lcfoot.fr",

    "Latitude": "46.9593461",

    "Longitude": "2.0212053"
  },

  {
    "name": "A.S. JEU LES BOIS",

    "adresse": "36120 JEU LES BOIS",

    "mail": "539717@lcfoot.fr",

    "Latitude": "46.673347",

    "Longitude": "1.795095"
  },

  {
    "name": "U.S. LE BLANC",

    "adresse": "36300 LE BLANC",

    "mail": "504874@lcfoot.fr",

    "Latitude": "46.633239",

    "Longitude": "1.064289"
  },

  {
    "name": "U.S. LIGNAC",

    "adresse": "36370 LIGNAC",

    "mail": "517326@lcfoot.fr",

    "Latitude": "46.466248",

    "Longitude": "1.217761"
  },

  {
    "name": "LINIEZ A.C.",

    "adresse": "36150 VATAN",

    "mail": "516380@lcfoot.fr",

    "Latitude": "47.071754",

    "Longitude": "1.808678"
  },

  {
    "name": "M2V",

    "adresse": "1 Place Raymond Couturier 36130 MONTIERCHAUME",

    "mail": "560632@lcfoot.fr",

    "Latitude": "46.8637475",

    "Longitude": "1.7725048"
  },

  {
    "name": "A.S. MARON",

    "adresse": "36120 MARON",

    "mail": "511653@lcfoot.fr",

    "Latitude": "46.8078069",

    "Longitude": "1.866624"
  },

  {
    "name": "MAUBLANC TEAM B.A.R",

    "adresse": "120 rue Montaigne BP 15 36000 CHATEAUROUX",

    "mail": "581737@lcfoot.fr",

    "Latitude": "46.7924696",

    "Longitude": "1.7106808"
  },

  {
    "name": "FOOTBALL CLUB MERS/MONTIPOURET",

    "adresse": "14 RUE DE LA REPUBLIQUE 36230 MONTIPOURET",

    "mail": "563807@lcfoot.fr",

    "Latitude": "46.6492066",

    "Longitude": "1.9021474"
  },

  {
    "name": "O. MONTCHEVRIER",

    "adresse": "36140 MONTCHEVRIER",

    "mail": "525434@lcfoot.fr",

    "Latitude": "46.480073",

    "Longitude": "1.744343"
  },

  {
    "name": "U.S. MONTGIVRAY",

    "adresse": "RUE DU PONT 36400 MONTGIVRAY",

    "mail": "525435@lcfoot.fr",

    "Latitude": "46.6010068",

    "Longitude": "1.9795456"
  },

  {
    "name": "U.S. MONTIERCHAUME",

    "adresse": "2 chemin de croix 36130 MONTIERCHAUME",

    "mail": "510635@lcfoot.fr",

    "Latitude": "46.860295",

    "Longitude": "1.771491"
  },

  {
    "name": "ESPOIR C. MOSNAY",

    "adresse": "36200 MOSNAY",

    "mail": "520959@lcfoot.fr",

    "Latitude": "46.622392",

    "Longitude": "1.626853"
  },

  {
    "name": "J.AM.S. MOULINS S/CEPHONS",

    "adresse": "36110 MOULINS SUR CEPHONS",

    "mail": "512285@lcfoot.fr",

    "Latitude": "47.009257",

    "Longitude": "1.5549"
  },

  {
    "name": "A.S. NIHERNE",

    "adresse": "Place de l'Eglise 36250 NIHERNE",

    "mail": "505274@lcfoot.fr",

    "Latitude": "46.8287199",

    "Longitude": "1.563968"
  },

  {
    "name": "AM. ANCIENS ELEVES NOHANT VIC",

    "adresse": "36400 NOHANT VIC",

    "mail": "522509@lcfoot.fr",

    "Latitude": "46.6393757",

    "Longitude": "1.956329"
  },

  {
    "name": "F.C. OBTERRE",

    "adresse": "36290 OBTERRE",

    "mail": "529338@lcfoot.fr",

    "Latitude": "46.915743",

    "Longitude": "1.037207"
  },

  {
    "name": "J.S. PALLUAU S/INDRE",

    "adresse": "36500 PALLUAU SUR INDRE",

    "mail": "505308@lcfoot.fr",

    "Latitude": "46.943575",

    "Longitude": "1.314993"
  },

  {
    "name": "A.C. PARNAC VAL D'ABLOUX",

    "adresse": "36170 PARNAC",

    "mail": "540468@lcfoot.fr",

    "Latitude": "46.45411",

    "Longitude": "1.443284"
  },

  {
    "name": "U.S. LE POINCONNET",

    "adresse": "RUE DU 30 AOUT 44 36330 LE POINCONNET",

    "mail": "513277@lcfoot.fr",

    "Latitude": "46.763343",

    "Longitude": "1.720795"
  },

  {
    "name": "ESP. LE PONT CHRETIEN",

    "adresse": "36800 LE PONT CHRETIEN CHABENET",

    "mail": "520564@lcfoot.fr",

    "Latitude": "46.628738",

    "Longitude": "1.478132"
  },

  {
    "name": "A.S. POULIGNY NOTRE DAME",

    "adresse": "2 Rue du Golf 36160 POULIGNY NOTRE DAME",

    "mail": "535046@lcfoot.fr",

    "Latitude": "46.4839194",

    "Longitude": "2.0032878"
  },

  {
    "name": "J.L.VAL DE CREUSE POULIGNY ST P.",

    "adresse": "36300 POULIGNY ST PIERRE",

    "mail": "526142@lcfoot.fr",

    "Latitude": "46.681106",

    "Longitude": "1.040087"
  },

  {
    "name": "J.S. PRUNIERS",

    "adresse": "36120 PRUNIERS",

    "mail": "524466@lcfoot.fr",

    "Latitude": "46.789005",

    "Longitude": "2.048633"
  },

  {
    "name": "SAPA CHATEAUROUX",

    "adresse": "SAPA Avenue Pierre de Coubertin 36000 CHATEAUROUX",

    "mail": "582083@lcfoot.fr",

    "Latitude": "46.8045593",

    "Longitude": "1.7212609"
  },

  {
    "name": "ESP.C. SASSIERGES ST GERMAIN",

    "adresse": "36120 SASSIERGES ST GERMAIN",

    "mail": "525834@lcfoot.fr",

    "Latitude": "46.769407",

    "Longitude": "1.89524"
  },

  {
    "name": "ENT. S. SAZERAY VIGOULANT VIJON",

    "adresse": "36160 SAZERAY",

    "mail": "526412@lcfoot.fr",

    "Latitude": "46.429379",

    "Longitude": "2.053588"
  },

  {
    "name": "SP.C. SEGRY",

    "adresse": "36100 SEGRY",

    "mail": "549286@lcfoot.fr",

    "Latitude": "46.891609",

    "Longitude": "2.0822569"
  },

  {
    "name": "ENT. S. ST. PLANTAIRE CUZION ORSENNES",

    "adresse": "LE BOURG 36190 SAINT PLANTAIRE",

    "mail": "549977@lcfoot.fr",

    "Latitude": "46.45579",

    "Longitude": "1.668164"
  },

  {
    "name": "AV.C. ST. AOUT",

    "adresse": "36120 ST AOUT",

    "mail": "504911@lcfoot.fr",

    "Latitude": "46.731852",

    "Longitude": "1.965447"
  },

  {
    "name": "AM.S. ST. GAULTIER THENAY",

    "adresse": "Place de l'Hôtel de Ville 36800 ST GAULTIER",

    "mail": "504857@lcfoot.fr",

    "Latitude": "46.635521",

    "Longitude": "1.423281"
  },

  {
    "name": "A.S. ST. LACTENCIN",

    "adresse": "36500 ST LACTENCIN",

    "mail": "530844@lcfoot.fr",

    "Latitude": "46.897804",

    "Longitude": "1.4924789"
  },

  {
    "name": "A.S.C. PITOLATE ST. MARCEL",

    "adresse": "36200 ST MARCEL",

    "mail": "525618@lcfoot.fr",

    "Latitude": "46.601102",

    "Longitude": "1.5140499"
  },

  {
    "name": "U.S. ST. MAUR",

    "adresse": "B.P. 11 36250 ST MAUR",

    "mail": "504912@lcfoot.fr",

    "Latitude": "46.820536",

    "Longitude": "1.669186"
  },

  {
    "name": "AV. ST. VALENTIN",

    "adresse": "36100 ST VALENTIN",

    "mail": "521303@lcfoot.fr",

    "Latitude": "46.951877",

    "Longitude": "1.864182"
  },

  {
    "name": "CTE L.O. SOCIALES A. PENITENTIAIRE 36 ST.MAUR",

    "adresse": "BEL AIR 36250 ST MAUR",

    "mail": "852943@lcfoot.fr",

    "Latitude": "46.802013",

    "Longitude": "1.633306"
  },

  {
    "name": "A. S. TENDU",

    "adresse": "36200 ARGENTON SUR CREUSE",

    "mail": "580934@lcfoot.fr",

    "Latitude": "46.586446",

    "Longitude": "1.52282"
  },

  {
    "name": "THEO FUTSAL",

    "adresse": "36320 VILLEDIEU SUR INDRE",

    "mail": "560141@lcfoot.fr",

    "Latitude": "46.8444351",

    "Longitude": "1.509095"
  },

  {
    "name": "U.S. TILLY",

    "adresse": "36310 TILLY",

    "mail": "528294@lcfoot.fr",

    "Latitude": "46.406082",

    "Longitude": "1.200776"
  },

  {
    "name": "TOURNON FOOTBALL CLUB",

    "adresse": "36220 TOURNON ST MARTIN",

    "mail": "560595@lcfoot.fr",

    "Latitude": "46.735702",

    "Longitude": "0.953173"
  },

  {
    "name": "ENT. G.C. TOUVENT CHATEAUROUX",

    "adresse": "RUE DU CHAMP LE ROY 36000 CHATEAUROUX",

    "mail": "522503@lcfoot.fr",

    "Latitude": "46.7952556",

    "Longitude": "1.6855338"
  },

  {
    "name": "UNION SPORTIVE BORDOISE",

    "adresse": "36100 LES BORDES",

    "mail": "860322@lcfoot.fr",

    "Latitude": "46.979985",

    "Longitude": "1.974037"
  },

  {
    "name": "U.S. REUILLY",

    "adresse": "6 PLACE DES ECOLES 36260 REUILLY",

    "mail": "505293@lcfoot.fr",

    "Latitude": "47.0849763",

    "Longitude": "2.0422985"
  },

  {
    "name": "U. S. ARGENTON LE PECHEREAU",

    "adresse": "Rue Lothaire Kubel 36200 ARGENTON SUR CREUSE",

    "mail": "504876@lcfoot.fr",

    "Latitude": "46.586381",

    "Longitude": "1.529797"
  },

  {
    "name": "U.S. BRENNE VENDOEUVRES",

    "adresse": "le bourg 36500 VENDOEUVRES",

    "mail": "505008@lcfoot.fr",

    "Latitude": "46.8023157",

    "Longitude": "1.3581311"
  },

  {
    "name": "ESP.C. VEUIL",

    "adresse": "36600 VEUIL",

    "mail": "518706@lcfoot.fr",

    "Latitude": "47.120837",

    "Longitude": "1.525765"
  },

  {
    "name": "LA VICQUOISE VICQ S/NAHON",

    "adresse": "36600 VICQ SUR NAHON",

    "mail": "517968@lcfoot.fr",

    "Latitude": "47.107346",

    "Longitude": "1.53012"
  },

  {
    "name": "VILLEDIEU FUTSAL",

    "adresse": "MAIRIE 36320 VILLEDIEU SUR INDRE",

    "mail": "854442@lcfoot.fr",

    "Latitude": "46.8472906",

    "Longitude": "1.5373416"
  },

  {
    "name": "U.S. VILLEDIEU S/INDRE",

    "adresse": "1 place Jean-Paul Thibauld 36320 VILLEDIEU SUR INDRE",

    "mail": "504895@lcfoot.fr",

    "Latitude": "46.8473596",

    "Longitude": "1.537955"
  },

  {
    "name": "U.S. VILLEGOUIN",

    "adresse": "36500 VILLEGOUIN",

    "mail": "536069@lcfoot.fr",

    "Latitude": "46.962708",

    "Longitude": "1.372582"
  },

  {
    "name": "U.S. VILLENTROIS",

    "adresse": "rue delalande 36600 VILLENTROIS",

    "mail": "515924@lcfoot.fr",

    "Latitude": "47.1926655",

    "Longitude": "1.4608415"
  },

  {
    "name": "A.C. VILLERS LES ORMES",

    "adresse": "STADE MUNICIPAL 36250 VILLERS LES ORMES",

    "mail": "554211@lcfoot.fr",

    "Latitude": "46.8658377",

    "Longitude": "1.6334024"
  },

  {
    "name": "A. FOOTBALL BOUCHARDAIS",

    "adresse": "Mairie - Place Bouchard 37220 L ILE BOUCHARD",

    "mail": "581822@lcfoot.fr",

    "Latitude": "47.1197226",

    "Longitude": "0.4248886"
  },

  {
    "name": "ACP TOURS",

    "adresse": "5/ 7 RUE PIERRE ET MARIE CURIE 37100 TOURS",

    "mail": "522955@lcfoot.fr",

    "Latitude": "47.4295364",

    "Longitude": "0.6805767"
  },

  {
    "name": "A.C. AMBOISIEN AMBOISE",

    "adresse": "L'ILE D'OR 37400 AMBOISE",

    "mail": "500358@lcfoot.fr",

    "Latitude": "47.415517",

    "Longitude": "0.9830112"
  },

  {
    "name": "AM. DES EDUCATEURS INDRE ET LOIRE",

    "adresse": "2 AVENUE CAMILLE CHAUTEMPS 37000 TOURS",

    "mail": "582086@lcfoot.fr",

    "Latitude": "47.3798124",

    "Longitude": "0.7270539"
  },

  {
    "name": "U.S. ANTOGNY LE TILLAC",

    "adresse": "37800 ANTOGNY LE TILLAC",

    "mail": "535309@lcfoot.fr",

    "Latitude": "46.978499",

    "Longitude": "0.577942"
  },

  {
    "name": "A. PROMOTION F. STE.MAURIEN",

    "adresse": "37800 MAILLE",

    "mail": "590131@lcfoot.fr",

    "Latitude": "47.0527019",

    "Longitude": "0.580328"
  },

  {
    "name": "A. S. TOURS SUD",

    "adresse": "5 Rue Verdi 37200 TOURS",

    "mail": "550520@lcfoot.fr",

    "Latitude": "47.3684398",

    "Longitude": "0.7118087"
  },

  {
    "name": "ASSOCIATION SPORTIVE ET CULTURELLE SAÉ37",

    "adresse": "37000 TOURS",

    "mail": "864153@lcfoot.fr",

    "Latitude": "47.3832745",

    "Longitude": "0.6897966"
  },

  {
    "name": "A. T. S. C. ADMINISTRATIONS },ANC 37",

    "adresse": "94 BOULEVARD BERANGER 37000 TOURS",

    "mail": "580779@lcfoot.fr",

    "Latitude": "47.3886243",

    "Longitude": "0.6803162"
  },

  {
    "name": "AVOINE OLYMPIQUE CHINON CINAIS",

    "adresse": "ROUTE DU NEMAN BP 31 37420 AVOINE",

    "mail": "580508@lcfoot.fr",

    "Latitude": "47.2363551",

    "Longitude": "0.2361054"
  },

  {
    "name": "SP.C. AZAY LE RIDEAU /CHEILLE",

    "adresse": "3 Allée Chalmin Stade de la Loge 37190 AZAY LE RIDEAU",

    "mail": "500386@lcfoot.fr",

    "Latitude": "47.2601954",

    "Longitude": "0.4703299"
  },

  {
    "name": "SP.C. BENAIS",

    "adresse": "les champs du chapitre 37140 BENAIS",

    "mail": "529933@lcfoot.fr",

    "Latitude": "47.2932496",

    "Longitude": "0.2011788"
  },

  {
    "name": "F. C. BERRY TOURAINE",

    "adresse": "37600 ST HIPPOLYTE",

    "mail": "523475@lcfoot.fr",

    "Latitude": "47.058331",

    "Longitude": "1.100532"
  },

  {
    "name": "ENT.S. BOURGUEIL",

    "adresse": "37140 BOURGUEIL",

    "mail": "505083@lcfoot.fr",

    "Latitude": "47.282487",

    "Longitude": "0.168611"
  },

  {
    "name": "AV. FOOTBALL DU BOURGUEILLOIS",

    "adresse": "11 AVENUE JEAN CAUSERET 37140 BOURGUEIL",

    "mail": "563699@lcfoot.fr",

    "Latitude": "47.2783602",

    "Longitude": "0.1684577"
  },

  {
    "name": "A.C. BREHEMONT",

    "adresse": "1. place du 8 Mai Siège social 37130 BREHEMONT",

    "mail": "510558@lcfoot.fr",

    "Latitude": "47.295773",

    "Longitude": "0.3555268"
  },

  {
    "name": "ENT.S.J. LA CELLE ST AVANT",

    "adresse": "37160 LA CELLE ST AVANT",

    "mail": "526302@lcfoot.fr",

    "Latitude": "47.021908",

    "Longitude": "0.604533"
  },

  {
    "name": "CHAMBRAY F.C.",

    "adresse": "AVENUE DE L'HOMMELAIE 37170 CHAMBRAY LES TOURS",

    "mail": "520240@lcfoot.fr",

    "Latitude": "47.3286844",

    "Longitude": "0.7215055"
  },

  {
    "name": "U.S. CHAMPIGNY S/VEUDE",

    "adresse": "37120 CHAMPIGNY SUR VEUDE",

    "mail": "511975@lcfoot.fr",

    "Latitude": "47.0668859",

    "Longitude": "0.323119"
  },

  {
    "name": "A.S. CHANCEAUX S/CHOISILLE",

    "adresse": "19. RUE DE LA MAIRIE 37390 CHANCEAUX SUR CHOISILLE",

    "mail": "528289@lcfoot.fr",

    "Latitude": "47.4726923",

    "Longitude": "0.70204"
  },

  {
    "name": "EL.S. CHARGE",

    "adresse": "37530 CHARGE",

    "mail": "520957@lcfoot.fr",

    "Latitude": "47.432341",

    "Longitude": "1.030288"
  },

  {
    "name": "A.S. CHARNIZAY ST FLOVIER",

    "adresse": "37600 ST FLOVIER",

    "mail": "547529@lcfoot.fr",

    "Latitude": "46.968085",

    "Longitude": "1.026439"
  },

  {
    "name": "SP.C. LA CROIX EN TOURAINE",

    "adresse": "37150 LA CROIX EN TOURAINE",

    "mail": "542351@lcfoot.fr",

    "Latitude": "47.337489",

    "Longitude": "0.989941"
  },

  {
    "name": "U.S. CROTELLES",

    "adresse": "37380 CROTELLES",

    "mail": "552056@lcfoot.fr",

    "Latitude": "47.54275",

    "Longitude": "0.836911"
  },

  {
    "name": "CROUZILLES F.C. 2001",

    "adresse": "1 RUE BALZAC 37220 CROUZILLES",

    "mail": "549551@lcfoot.fr",

    "Latitude": "47.1244981",

    "Longitude": "0.4603993"
  },

  {
    "name": "SAINT GEORGES DESCARTES",

    "adresse": "01 Avenue F.MITTERRAND 37160 DESCARTES",

    "mail": "590283@lcfoot.fr",

    "Latitude": "46.9819519",

    "Longitude": "0.6850261"
  },

  {
    "name": "ECOLE INTERCOM. F. RIVARENNES",

    "adresse": "37190 RIVARENNES",

    "mail": "551890@lcfoot.fr",

    "Latitude": "47.266654",

    "Longitude": "0.356684"
  },

  {
    "name": "AM.S. ESVES LE MOUTIER/ST SENOCH",

    "adresse": "1. rue alfred de vigny 37240 ESVES LE MOUTIER",

    "mail": "515724@lcfoot.fr",

    "Latitude": "47.0410556",

    "Longitude": "0.9072486"
  },

  {
    "name": "AUBE S. ESVRES S/INDRE",

    "adresse": "37320 ESVRES",

    "mail": "516870@lcfoot.fr",

    "Latitude": "47.284385",

    "Longitude": "0.78527"
  },

  {
    "name": "F. C. ETOILE VERTE",

    "adresse": "MAIRIE 37320 ST BRANCHS",

    "mail": "581867@lcfoot.fr",

    "Latitude": "47.2272311",

    "Longitude": "0.7717891"
  },

  {
    "name": "F.A. ST. SYMPHORIEN TOURS",

    "adresse": "5 RUE BENJAMIN FRANKLIN 37100 TOURS",

    "mail": "520472@lcfoot.fr",

    "Latitude": "47.4126557",

    "Longitude": "0.6942338"
  },

  {
    "name": "F.C. DE L'OUEST TOURANGEAU 37",

    "adresse": "4. impasse de La Haye 37510 BALLAN MIRE",

    "mail": "554357@lcfoot.fr",

    "Latitude": "47.3317484",

    "Longitude": "0.614065"
  },

  {
    "name": "F.C. FERRIERE S/BEAULIEU",

    "adresse": "37600 FERRIERE SUR BEAULIEU",

    "mail": "538487@lcfoot.fr",

    "Latitude": "47.138725",

    "Longitude": "1.03656"
  },

  {
    "name": "ALERTE S. DE FONDETTES",

    "adresse": "ALLEE DE LA POUPARDIERE 37230 FONDETTES",

    "mail": "521070@lcfoot.fr",

    "Latitude": "47.4019139",

    "Longitude": "0.6003327"
  },

  {
    "name": "U.S. LE GRAND PRESSIGNY BARROU",

    "adresse": "37350 LE GRAND PRESSIGNY",

    "mail": "550075@lcfoot.fr",

    "Latitude": "46.920619",

    "Longitude": "0.803318"
  },

  {
    "name": "F.C. GATINE CHOISILLES",

    "adresse": "5 RUE DU 11 NOVEMBRE 37360 ROUZIERS DE TOURAINE",

    "mail": "582286@lcfoot.fr",

    "Latitude": "47.5166439",

    "Longitude": "0.648309"
  },

  {
    "name": "ET.S. GENILLE",

    "adresse": "37460 GENILLE",

    "mail": "518048@lcfoot.fr",

    "Latitude": "47.184903",

    "Longitude": "1.0932679"
  },

  {
    "name": "ET.S. GIZEUX",

    "adresse": "37340 GIZEUX",

    "mail": "512272@lcfoot.fr",

    "Latitude": "47.392582",

    "Longitude": "0.195967"
  },

  {
    "name": "U.S. LES HERMITES",

    "adresse": "37110 LES HERMITES",

    "mail": "520956@lcfoot.fr",

    "Latitude": "47.664534",

    "Longitude": "0.751185"
  },

  {
    "name": "ET.S. HUISMES",

    "adresse": "Route de Mouzilly 37420 HUISMES",

    "mail": "505334@lcfoot.fr",

    "Latitude": "47.2214593",

    "Longitude": "0.2732787"
  },

  {
    "name": "SHOOT INGRANDES DE TOURAINE",

    "adresse": "37140 INGRANDES DE TOURAINE",

    "mail": "520708@lcfoot.fr",

    "Latitude": "47.282328",

    "Longitude": "0.266382"
  },

  {
    "name": "JOUE LES TOURS F.C. TOURAINE",

    "adresse": "2 RUE DU CLOS NEUF 37300 JOUE LES TOURS",

    "mail": "553790@lcfoot.fr",

    "Latitude": "47.3544784",

    "Longitude": "0.6567072"
  },

  {
    "name": "U.S. PORTUGAISE DE JOUE LES TOUR",

    "adresse": "Route des maisons neuves 37300 JOUE LES TOURS",

    "mail": "534021@lcfoot.fr",

    "Latitude": "47.3251928",

    "Longitude": "0.6548621"
  },

  {
    "name": "A. S. C. LABORATOIRES CHEMINEAU",

    "adresse": "37210 VOUVRAY",

    "mail": "663878@lcfoot.fr",

    "Latitude": "47.412068",

    "Longitude": "0.799248"
  },

  {
    "name": "LATHAMBILLOU FOOTBALL CLUB",

    "adresse": "37340 SAVIGNE SUR LATHAN",

    "mail": "563765@lcfoot.fr",

    "Latitude": "47.444617",

    "Longitude": "0.320189"
  },

  {
    "name": "FOOTBALL CHOISILLE LAMEMBROLLE METTRAY",

    "adresse": "MAIRIE 37390 METTRAY",

    "mail": "582325@lcfoot.fr",

    "Latitude": "47.4525505",

    "Longitude": "0.6492729"
  },

  {
    "name": "LANGEAIS CINQ MARS FOOTBALL",

    "adresse": "2 PLACE DU 14 JUILLET 37130 LANGEAIS",

    "mail": "551760@lcfoot.fr",

    "Latitude": "47.3245196",

    "Longitude": "0.4082001"
  },

  {
    "name": "LE RICHELAIS FOOT",

    "adresse": "MAIRIE 37120 RICHELIEU",

    "mail": "582284@lcfoot.fr",

    "Latitude": "47.0122079",

    "Longitude": "0.3208313"
  },

  {
    "name": "U.S. LIGNIERES DE TOURAINE",

    "adresse": "Place Adolphe LANGLOIS 37130 LIGNIERES DE TOURAINE",

    "mail": "513787@lcfoot.fr",

    "Latitude": "47.2978543",

    "Longitude": "0.4171246"
  },

  {
    "name": "U.S. LIMERAY CANGEY",

    "adresse": "37530 LIMERAY",

    "mail": "531964@lcfoot.fr",

    "Latitude": "47.459387",

    "Longitude": "1.040952"
  },

  {
    "name": "LOCHES A.C.",

    "adresse": "1 allée du Maquis de Césario 37600 LOCHES",

    "mail": "504934@lcfoot.fr",

    "Latitude": "47.1267175",

    "Longitude": "1.0014779"
  },

  {
    "name": "A.S. LUYNES",

    "adresse": "37230 LUYNES",

    "mail": "523311@lcfoot.fr",

    "Latitude": "47.384882",

    "Longitude": "0.554293"
  },

  {
    "name": "C.AM. LUZILLE",

    "adresse": "37150 LUZILLE",

    "mail": "518823@lcfoot.fr",

    "Latitude": "47.262128",

    "Longitude": "1.059992"
  },

  {
    "name": "SP.L.O. MAZIERES DE TOURAINE",

    "adresse": "1 RUE DU GENERAL CHANZY 37130 MAZIERES DE TOURAINE",

    "mail": "528297@lcfoot.fr",

    "Latitude": "47.383393",

    "Longitude": "0.4245373"
  },

  {
    "name": "U.S. MONNAIE",

    "adresse": "37380 MONNAIE",

    "mail": "512279@lcfoot.fr",

    "Latitude": "47.4977713",

    "Longitude": "0.7839985"
  },

  {
    "name": "U.S. MONTBAZONNAISE F. MONTBAZON",

    "adresse": "37250 MONTBAZON",

    "mail": "522603@lcfoot.fr",

    "Latitude": "47.2869839",

    "Longitude": "0.713777"
  },

  {
    "name": "GAILLARDE S. DE MONTHODON",

    "adresse": "37110 MONTHODON",

    "mail": "521305@lcfoot.fr",

    "Latitude": "47.64971",

    "Longitude": "0.837418"
  },

  {
    "name": "F. C. DE MONTLOUIS",

    "adresse": "43. rue Descartes 37270 MONTLOUIS SUR LOIRE",

    "mail": "504926@lcfoot.fr",

    "Latitude": "47.3868469",

    "Longitude": "0.8170766"
  },

  {
    "name": "F.C. MONTREUIL",

    "adresse": "33 RUE DU BOURG 37530 MONTREUIL EN TOURAINE",

    "mail": "535313@lcfoot.fr",

    "Latitude": "47.487338",

    "Longitude": "0.9482691"
  },

  {
    "name": "A.S. MONTS",

    "adresse": "rue Maurice Ravel 37260 MONTS",

    "mail": "511976@lcfoot.fr",

    "Latitude": "47.275336",

    "Longitude": "0.6427079"
  },

  {
    "name": "AM.S. NAZELLES NEGRON",

    "adresse": "10 avenue des Courvoyeurs 37530 NAZELLES NEGRON",

    "mail": "505444@lcfoot.fr",

    "Latitude": "47.4316668",

    "Longitude": "0.9542409"
  },

  {
    "name": "ET.S. OESIENNE NOTRE DAME D'OE",

    "adresse": "STAGE GEORGES ROMIEN 37390 NOTRE DAME D OE",

    "mail": "519669@lcfoot.fr",

    "Latitude": "47.457142",

    "Longitude": "0.707757"
  },

  {
    "name": "U.S. NOUZILLY ST.LAURENT",

    "adresse": "37380 NOUZILLY",

    "mail": "551121@lcfoot.fr",

    "Latitude": "47.543367",

    "Longitude": "0.744155"
  },

  {
    "name": "U.S. ORBIGNY-NOUANS-BEAUMONT",

    "adresse": "8. rue Jeanne d'Arc 37460 ORBIGNY",

    "mail": "547586@lcfoot.fr",

    "Latitude": "47.2096813",

    "Longitude": "1.2352541"
  },

  {
    "name": "AVIONNETTE PARCAY MESLAY F.C.",

    "adresse": "5 rue des sports 37210 PARCAY MESLAY",

    "mail": "514636@lcfoot.fr",

    "Latitude": "47.4418535",

    "Longitude": "0.7422243"
  },

  {
    "name": "A.S. PAYS DE RACAN NEUVY LE ROI",

    "adresse": "18 RUE DU 8 MAI 1945 37370 NEUVY LE ROI",

    "mail": "542306@lcfoot.fr",

    "Latitude": "47.605829",

    "Longitude": "0.5986737"
  },

  {
    "name": "ENT. DES CLUBS DE F. DU PAYS MONTRESOROIS",

    "adresse": "1 rue de la Couteauderie 37460 MONTRESOR",

    "mail": "552454@lcfoot.fr",

    "Latitude": "47.1570255",

    "Longitude": "1.1965454"
  },

  {
    "name": "U.S. PERNAY",

    "adresse": "37230 PERNAY",

    "mail": "527844@lcfoot.fr",

    "Latitude": "47.443899",

    "Longitude": "0.499282"
  },

  {
    "name": "ENT.S.C. PERRUSSON",

    "adresse": "37600 PERRUSSON",

    "mail": "526141@lcfoot.fr",

    "Latitude": "47.100065",

    "Longitude": "1.013676"
  },

  {
    "name": "AM.S. POCE S/CISSE",

    "adresse": "37530 POCE SUR CISSE",

    "mail": "523925@lcfoot.fr",

    "Latitude": "47.443001",

    "Longitude": "0.990935"
  },

  {
    "name": "U. S. PORTS-NOUATRE",

    "adresse": "2 PLACE DE LA MAIRIE 37800 PORTS SUR VIENNE",

    "mail": "581868@lcfoot.fr",

    "Latitude": "47.0150212",

    "Longitude": "0.5538373"
  },

  {
    "name": "ET.S. POUZAY",

    "adresse": "37800 POUZAY",

    "mail": "514344@lcfoot.fr",

    "Latitude": "47.081879",

    "Longitude": "0.532979"
  },

  {
    "name": "REIGNAC CHAMBOURG VAL INDRE",

    "adresse": "30 RUE DES SABOTIERS 37310 REIGNAC SUR INDRE",

    "mail": "581189@lcfoot.fr",

    "Latitude": "47.2282636",

    "Longitude": "0.9116846"
  },

  {
    "name": "U.S. RENAUDINE F.",

    "adresse": "36 RUE GAMBETTA 37110 CHATEAU RENAULT",

    "mail": "500375@lcfoot.fr",

    "Latitude": "47.5985641",

    "Longitude": "0.915041"
  },

  {
    "name": "R. LA RICHE TOURS",

    "adresse": "37520 LA RICHE",

    "mail": "544106@lcfoot.fr",

    "Latitude": "47.3835142",

    "Longitude": "0.6486092"
  },

  {
    "name": "LE RICHELAIS JEUNESSE SPORTIVE",

    "adresse": "1 PLACE DU MARCHE 37120 RICHELIEU",

    "mail": "553511@lcfoot.fr",

    "Latitude": "47.0126203",

    "Longitude": "0.3240318"
  },

  {
    "name": "U.S. DE RILLY S/VIENNE",

    "adresse": "37220 RILLY SUR VIENNE",

    "mail": "528295@lcfoot.fr",

    "Latitude": "47.058026",

    "Longitude": "0.493935"
  },

  {
    "name": "A.S. ROCHECORBON",

    "adresse": "PLACE DU 8 MAI 1945 37210 ROCHECORBON",

    "mail": "519772@lcfoot.fr",

    "Latitude": "47.4142311",

    "Longitude": "0.7548735"
  },

  {
    "name": "A.S. STE. CATHERINE DE FIERBOIS",

    "adresse": "37800 STE CATHERINE DE FIERBOIS",

    "mail": "527556@lcfoot.fr",

    "Latitude": "47.1573",

    "Longitude": "0.65407"
  },

  {
    "name": "FOOTBALL CLUB DU VERON",

    "adresse": "37420 SAVIGNY EN VERON",

    "mail": "511010@lcfoot.fr",

    "Latitude": "47.200575",

    "Longitude": "0.1451369"
  },

  {
    "name": "U.S. SEPMES DRACHE",

    "adresse": "1 rue des Saulniers 37800 SEPMES",

    "mail": "517327@lcfoot.fr",

    "Latitude": "47.0697525",

    "Longitude": "0.6722994"
  },

  {
    "name": "C.A. S.K.F. ST. CYR SUR LOIRE",

    "adresse": "37540 ST CYR SUR LOIRE",

    "mail": "849646@lcfoot.fr",

    "Latitude": "47.4226391",

    "Longitude": "0.6598074"
  },

  {
    "name": "ET.S. DE SOUVIGNE",

    "adresse": "La Mairie 37330 SOUVIGNE",

    "mail": "582007@lcfoot.fr",

    "Latitude": "47.520326",

    "Longitude": "0.398873"
  },

  {
    "name": "ET. S. VAL DE VEUDE",

    "adresse": "37500 RIVIERE",

    "mail": "560533@lcfoot.fr",

    "Latitude": "47.1457949",

    "Longitude": "0.2774785"
  },

  {
    "name": "F.C. ST. ANTOINE DU ROCHER",

    "adresse": "6 rue des écoles 37360 ST ANTOINE DU ROCHER",

    "mail": "538435@lcfoot.fr",

    "Latitude": "47.4966375",

    "Longitude": "0.62919"
  },

  {
    "name": "ST. AVERTIN SP.",

    "adresse": "31 rue Frédéric Joliot Curie 37550 ST AVERTIN",

    "mail": "511974@lcfoot.fr",

    "Latitude": "47.346465",

    "Longitude": "0.7302485"
  },

  {
    "name": "ENT.S. ST. BENOIT LA FORET",

    "adresse": "37500 ST BENOIT LA FORET",

    "mail": "515603@lcfoot.fr",

    "Latitude": "47.215351",

    "Longitude": "0.321748"
  },

  {
    "name": "ET. BLEUE ST. CYR S/LOIRE",

    "adresse": "37540 ST CYR SUR LOIRE",

    "mail": "511543@lcfoot.fr",

    "Latitude": "47.4226391",

    "Longitude": "0.6598074"
  },

  {
    "name": "U.S. ST. EPAIN",

    "adresse": "37800 ST EPAIN",

    "mail": "511973@lcfoot.fr",

    "Latitude": "47.144626",

    "Longitude": "0.53659"
  },

  {
    "name": "U.S. GENULPHIENNE ST. GENOUPH",

    "adresse": "19 RUE DU BOURG 37510 ST GENOUPH",

    "mail": "551456@lcfoot.fr",

    "Latitude": "47.3781745",

    "Longitude": "0.5998928"
  },

  {
    "name": "U.S. ST. MARTIN LE BEAU",

    "adresse": "Mairie de st Martin le beau 37270 ST MARTIN LE BEAU",

    "mail": "523937@lcfoot.fr",

    "Latitude": "47.356049",

    "Longitude": "0.9103625"
  },

  {
    "name": "U.S. ST. NICOLAS DE BOURGUEIL",

    "adresse": "37140 ST NICOLAS DE BOURGUEIL",

    "mail": "525565@lcfoot.fr",

    "Latitude": "47.284852",

    "Longitude": "0.12535"
  },

  {
    "name": "A.S. DE L'AUBRIERE",

    "adresse": "7 rue fabienne landy 37700 ST PIERRE DES CORPS",

    "mail": "554358@lcfoot.fr",

    "Latitude": "47.3864547",

    "Longitude": "0.7187457"
  },

  {
    "name": "U.S. ST. PIERRE DES CORPS",

    "adresse": "58 RUE DANIELLE CASANOVA 37700 ST PIERRE DES CORPS",

    "mail": "504935@lcfoot.fr",

    "Latitude": "47.391311",

    "Longitude": "0.73802"
  },

  {
    "name": "F.C.S.2M STE.MAURE MAILLE",

    "adresse": "7 rue des Marronniers 37800 NOYANT DE TOURAINE",

    "mail": "551126@lcfoot.fr",

    "Latitude": "47.1066201",

    "Longitude": "0.5855875"
  },

  {
    "name": "ARDENTE DE TOURS",

    "adresse": "2 Bis Allée Alcuin 37200 TOURS",

    "mail": "522600@lcfoot.fr",

    "Latitude": "47.3614773",

    "Longitude": "0.6923066"
  },

  {
    "name": "A.S. DE PREPARATION O. TOURS",

    "adresse": "LES EPINES FORTES 281 AVENUE STALINGRAD 37700 ST PIERRE DES CORPS",

    "mail": "535037@lcfoot.fr",

    "Latitude": "47.3918459",

    "Longitude": "0.7500485"
  },

  {
    "name": "ET.S. DE LA BERGEONNERIE TOURS",

    "adresse": "1 ALLEE ANDRE GIDE APPT 7 37000 TOURS",

    "mail": "590556@lcfoot.fr",

    "Latitude": "47.3761002",

    "Longitude": "0.6991048"
  },

  {
    "name": "C. DEPORTIVO ESPAGNOL TOURS",

    "adresse": "37000 TOURS",

    "mail": "519004@lcfoot.fr",

    "Latitude": "47.3832745",

    "Longitude": "0.6897966"
  },

  {
    "name": "EUROVIA TOURS F.C.",

    "adresse": "RUE JOSEPH CUGNOT - B.P. 321 37303 JOUE LES TOURS CEDEX",

    "mail": "852747@lcfoot.fr",

    "Latitude": "47.342976",

    "Longitude": "0.636116"
  },

  {
    "name": "TOURS F.C.",

    "adresse": "2 rue jules Ladoumegue 37000 TOURS",

    "mail": "504917@lcfoot.fr",

    "Latitude": "47.3772621",

    "Longitude": "0.7326751"
  },

  {
    "name": "O.C. DE TOURS",

    "adresse": "37100 TOURS",

    "mail": "547480@lcfoot.fr",

    "Latitude": "47.3900474",

    "Longitude": "0.6889268"
  },

  {
    "name": "TOURS TURK FUTBOL KULUBU",

    "adresse": "37000 TOURS",

    "mail": "546919@lcfoot.fr",

    "Latitude": "47.3900474",

    "Longitude": "0.6889268"
  },

  {
    "name": "F.C. VAL DE CHER 37",

    "adresse": "39 RUE GAMBETTA 37150 BLERE",

    "mail": "582647@lcfoot.fr",

    "Latitude": "47.3261",

    "Longitude": "0.9942552"
  },

  {
    "name": "F.C. VAL DE BRENNE",

    "adresse": "37210 CHANCAY",

    "mail": "523088@lcfoot.fr",

    "Latitude": "47.451049",

    "Longitude": "0.872756"
  },

  {
    "name": "ET. S. VAL DE VEUDE",

    "adresse": "37500 RIVIERE",

    "mail": "560533@lcfoot.fr",

    "Latitude": "47.145795",

    "Longitude": "0.2774786"
  },

  {
    "name": "ET. S. VAL DE VEUDE",

    "adresse": "37500 RIVIERE",

    "mail": "560533@lcfoot.fr",

    "Latitude": "47.1457951",

    "Longitude": "0.2774787"
  },

  {
    "name": "ET. S. VAL DE VEUDE",

    "adresse": "37500 RIVIERE",

    "mail": "560533@lcfoot.fr",

    "Latitude": "47.1457952",

    "Longitude": "0.2774788"
  },

  {
    "name": "ET. S. VAL DE VEUDE",

    "adresse": "37500 RIVIERE",

    "mail": "560533@lcfoot.fr",

    "Latitude": "47.1457953",

    "Longitude": "0.2774789"
  },

  {
    "name": "ET. S. VAL DE VEUDE",

    "adresse": "37500 RIVIERE",

    "mail": "560533@lcfoot.fr",

    "Latitude": "47.1457954",

    "Longitude": "0.277479"
  },

  {
    "name": "ET. S. VAL DE VEUDE",

    "adresse": "37500 RIVIERE",

    "mail": "560533@lcfoot.fr",

    "Latitude": "47.1457955",

    "Longitude": "0.2774791"
  },

  {
    "name": "ET. S. VAL DE VEUDE",

    "adresse": "37500 RIVIERE",

    "mail": "560533@lcfoot.fr",

    "Latitude": "47.1457956",

    "Longitude": "0.2774792"
  },

  {
    "name": "ET. S. VAL DE VEUDE",

    "adresse": "37500 RIVIERE",

    "mail": "560533@lcfoot.fr",

    "Latitude": "47.1457957",

    "Longitude": "0.2774793"
  },

  {
    "name": "ET. S. VAL DE VEUDE",

    "adresse": "37500 RIVIERE",

    "mail": "560533@lcfoot.fr",

    "Latitude": "47.1457958",

    "Longitude": "0.2774794"
  },

  {
    "name": "ET. S. VAL DE VEUDE",

    "adresse": "37500 RIVIERE",

    "mail": "560533@lcfoot.fr",

    "Latitude": "47.1457959",

    "Longitude": "0.2774795"
  },

  {
    "name": "ET. S. VAL DE VEUDE",

    "adresse": "37500 RIVIERE",

    "mail": "560533@lcfoot.fr",

    "Latitude": "47.145796",

    "Longitude": "0.2774796"
  },

  {
    "name": "ET. S. VAL DE VEUDE",

    "adresse": "37500 RIVIERE",

    "mail": "560533@lcfoot.fr",

    "Latitude": "47.1457961",

    "Longitude": "0.2774797"
  },

  {
    "name": "R. C. VAL SUD TOURAINE",

    "adresse": "MAIRIE RUE DANGE D'ORSAY 37240 CHAPELLE BLANCHE ST MARTIN",

    "mail": "581865@lcfoot.fr",

    "Latitude": "47.0856643",

    "Longitude": "0.7921153"
  },

  {
    "name": "A.S. DE LA VALLEE DU LYS PONT",

    "adresse": "22 RUE DE LA CHATAIGNERAIE 37260 PONT DE RUAN",

    "mail": "511766@lcfoot.fr",

    "Latitude": "47.2562556",

    "Longitude": "0.572874"
  },

  {
    "name": "E.S. DE LA VALLEE VERTE",

    "adresse": "1 RUE DU STADE 37320 TRUYES",

    "mail": "551127@lcfoot.fr",

    "Latitude": "47.2753707",

    "Longitude": "0.8443978"
  },

  {
    "name": "C.S. TOURANGEAU VEIGNE",

    "adresse": "18 rue de La Croix Saint Paul 37250 VEIGNE",

    "mail": "518549@lcfoot.fr",

    "Latitude": "47.2828005",

    "Longitude": "0.7485102"
  },

  {
    "name": "F.C. VERETZ-AZAY-LARCAY",

    "adresse": "39 avenue de la Guérinière 37270 VERETZ",

    "mail": "582552@lcfoot.fr",

    "Latitude": "47.3535394",

    "Longitude": "0.8017415"
  },

  {
    "name": "ET.S. LA VILLE AUX DAMES",

    "adresse": "37700 LA VILLE AUX DAMES",

    "mail": "529944@lcfoot.fr",

    "Latitude": "47.3926795",

    "Longitude": "0.7519086"
  },

  {
    "name": "A.S. DE VILLEDOMER",

    "adresse": "Place des Martyrs de la Résistan 37110 VILLEDOMER",

    "mail": "512577@lcfoot.fr",

    "Latitude": "47.5456803",

    "Longitude": "0.888615"
  },

  {
    "name": "SP.C. VILLEPERDUE",

    "adresse": "70 RUE DU CARROI DU VIGNAU 37260 VILLEPERDUE",

    "mail": "529266@lcfoot.fr",

    "Latitude": "47.5456803",

    "Longitude": "0.888615"
  },

  {
    "name": "AM.S. VILLIERS AU BOUIN",

    "adresse": "37330 VILLIERS AU BOUIN",

    "mail": "512278@lcfoot.fr",

    "Latitude": "47.574813",

    "Longitude": "0.312405"
  },

  {
    "name": "U.S. YZEURES PREUILLY",

    "adresse": "37290 PREUILLY SUR CLAISE",

    "mail": "548238@lcfoot.fr",

    "Latitude": "46.854377",

    "Longitude": "0.928917"
  },

  {
    "name": "A.S. CHAILLES CANDE 99",

    "adresse": "41120 CHAILLES",

    "mail": "548236@lcfoot.fr",

    "Latitude": "47.538157",

    "Longitude": "1.306696"
  },

  {
    "name": "A.S. CONTRES",

    "adresse": "RUE DU STADE 41700 CONTRES",

    "mail": "504966@lcfoot.fr",

    "Latitude": "47.4899757",

    "Longitude": "1.408391"
  },

  {
    "name": "A. S. C. TURQUE DE BLOIS",

    "adresse": "41000 BLOIS",

    "mail": "582692@lcfoot.fr",

    "Latitude": "47.5860921",

    "Longitude": "1.3359475"
  },

  {
    "name": "ASSOCIATION SPORTIVE SARGE MONDOUBLEAU CORMENON",

    "adresse": "Place du Marché 41170 MONDOUBLEAU",

    "mail": "560229@lcfoot.fr",

    "Latitude": "47.980515",

    "Longitude": "0.894653"
  },

  {
    "name": "BLOIS F. 41",

    "adresse": "107 ROUTE DE CHATEAU RENAULT 41000 BLOIS",

    "mail": "548235@lcfoot.fr",

    "Latitude": "47.583065",

    "Longitude": "1.3037526"
  },

  {
    "name": "A.F.C. BLOIS 1995",

    "adresse": "rue Duguay Trouin 41000 BLOIS",

    "mail": "545766@lcfoot.fr",

    "Latitude": "47.593061",

    "Longitude": "1.3007455"
  },

  {
    "name": "A.S.C. DES PORTUGAIS BLOIS",

    "adresse": "41000 BLOIS",

    "mail": "533251@lcfoot.fr",

    "Latitude": "47.5860921",

    "Longitude": "1.3359475"
  },

  {
    "name": "ASPTT BLOIS",

    "adresse": "41000 BLOIS",

    "mail": "530834@lcfoot.fr",

    "Latitude": "47.5860921",

    "Longitude": "1.3359475"
  },

  {
    "name": "BRACIEUX FUTSAL",

    "adresse": "41250 BRACIEUX",

    "mail": "564073@lcfoot.fr",

    "Latitude": "47.548676",

    "Longitude": "1.542905"
  },

  {
    "name": "C.A. OUZOUER LE MARCHE",

    "adresse": "7 rue Marin Galliot 41240 BEAUCE LA ROMAINE",

    "mail": "504943@lcfoot.fr",

    "Latitude": "47.9118728",

    "Longitude": "1.5234874"
  },

  {
    "name": "C.A. ST-LAURENT-NOUAN LA FERTE ST CYR FOOTBALL",

    "adresse": "Place de la mairie BP 52 41220 ST LAURENT NOUAN",

    "mail": "505067@lcfoot.fr",

    "Latitude": "47.7166351",

    "Longitude": "1.611235"
  },

  {
    "name": "C.AM. MONTRICHARD",

    "adresse": "25 RUE NATIONALE 41400 MONTRICHARD",

    "mail": "504886@lcfoot.fr",

    "Latitude": "47.3430136",

    "Longitude": "1.1838738"
  },

  {
    "name": "U.S. CHEMERY MEHERS ST ROMAIN",

    "adresse": "11 RUE NATIONALE 41700 CHEMERY",

    "mail": "505123@lcfoot.fr",

    "Latitude": "47.3506942",

    "Longitude": "1.4797517"
  },

  {
    "name": "U.S.C.CHATRES S/CHER LANGON MENN",

    "adresse": "41320 CHATRES SUR CHER",

    "mail": "514350@lcfoot.fr",

    "Latitude": "47.264819",

    "Longitude": "1.904471"
  },

  {
    "name": "U.S.C.CHATRES S/CHER LANGON MENN",

    "adresse": "41321 CHATRES SUR CHER",

    "mail": "514350@lcfoot.fr",

    "Latitude": "47.264819",

    "Longitude": "1.904471"
  },

  {
    "name": "U.S.C.CHATRES S/CHER LANGON MENN",

    "adresse": "41322 CHATRES SUR CHER",

    "mail": "514350@lcfoot.fr",

    "Latitude": "47.264819",

    "Longitude": "1.904471"
  },

  {
    "name": "U.S.C.CHATRES S/CHER LANGON MENN",

    "adresse": "41323 CHATRES SUR CHER",

    "mail": "514350@lcfoot.fr",

    "Latitude": "47.264819",

    "Longitude": "1.904471"
  },

  {
    "name": "A.S. CHAUMONT S/LOIRE",

    "adresse": "Rue du marechal de Lattre 41150 CHAUMONT SUR LOIRE",

    "mail": "526957@lcfoot.fr",

    "Latitude": "47.4824332",

    "Longitude": "1.1941323"
  },

  {
    "name": "U.S. CHAUMONT S/THARONNE",

    "adresse": "mairie route de romorantin 41600 CHAUMONT SUR THARONNE",

    "mail": "512415@lcfoot.fr",

    "Latitude": "47.6094402",

    "Longitude": "1.9037567"
  },

  {
    "name": "A.SP.J. LA CHAUSSEE ST VICTOR",

    "adresse": "15 RUE DES BASSES ROCHES 41260 LA CHAUSSEE ST VICTOR",

    "mail": "520018@lcfoot.fr",

    "Latitude": "47.6122282",

    "Longitude": "1.3668583"
  },

  {
    "name": "CHER SOLOGNE FOOTBALL",

    "adresse": "8 Rue Pressigny 41130 SELLES SUR CHER",

    "mail": "560140@lcfoot.fr",

    "Latitude": "47.276709",

    "Longitude": "1.5431953"
  },

  {
    "name": "ET.S. CHEVERNY COUR",

    "adresse": "41700 COUR CHEVERNY",

    "mail": "504928@lcfoot.fr",

    "Latitude": "47.508733",

    "Longitude": "1.457552"
  },

  {
    "name": "U.S. CHITENAY CELLETTES",

    "adresse": "41120 CHITENAY",

    "mail": "514336@lcfoot.fr",

    "Latitude": "47.497791",

    "Longitude": "1.371163"
  },

  {
    "name": "A.S. CHOUZY-ONZAIN",

    "adresse": "4 Rue Lecoq 41150 ONZAIN",

    "mail": "541188@lcfoot.fr",

    "Latitude": "47.4996191",

    "Longitude": "1.178234"
  },

  {
    "name": "CLUB AMITIE",

    "adresse": "41500 MUIDES SUR LOIRE",

    "mail": "560589@lcfoot.fr",

    "Latitude": "47.4996191",

    "Longitude": "1.178234"
  },

  {
    "name": "COEUR DE SOLOGNE",

    "adresse": "STADE DE CORDY 41600 NOUAN LE FUZELIER",

    "mail": "550400@lcfoot.fr",

    "Latitude": "47.5479674",

    "Longitude": "2.0302559"
  },

  {
    "name": "J.S. CORMERAY",

    "adresse": "41120 CORMERAY",

    "mail": "505208@lcfoot.fr",

    "Latitude": "47.492151",

    "Longitude": "1.406409"
  },

  {
    "name": "A.S. COUFFY CHATEAUVIEUX SEIGY",

    "adresse": "41110 COUFFY",

    "mail": "546400@lcfoot.fr",

    "Latitude": "47.247576",

    "Longitude": "1.43965"
  },

  {
    "name": "ENT. S. AZE-THORE-LUNAY",

    "adresse": "LA MAIRIE 9 PLACE DE L'EGLISE 41360 LUNAY",

    "mail": "582559@lcfoot.fr",

    "Latitude": "47.8084511",

    "Longitude": "0.9152022"
  },

  {
    "name": "U.S. FOUGERES S/BIEVRE OUCHAMPS FEINGS",

    "adresse": "41120 FOUGERES SUR BIEVRE",

    "mail": "546906@lcfoot.fr",

    "Latitude": "47.4478099",

    "Longitude": "1.3411169"
  },

  {
    "name": "U.S. POUILLE MAREUIL",

    "adresse": "41110 POUILLE",

    "mail": "524973@lcfoot.fr",

    "Latitude": "47.316999",

    "Longitude": "1.2919639"
  },

  {
    "name": "ST ROCH CITY ROMORANTIN",

    "adresse": "stade Tournefeuille 41200 ROMORANTIN LANTHENAY",

    "mail": "528281@lcfoot.fr",

    "Latitude": "47.3556861",

    "Longitude": "1.7530219"
  },

  {
    "name": "A. SALBRIS SP.",

    "adresse": "18 AVENUE DE LA RESISTANCE 41300 SALBRIS",

    "mail": "504920@lcfoot.fr",

    "Latitude": "47.4286682",

    "Longitude": "2.0597199"
  },

  {
    "name": "ET.S. VILLEFRANCHE S/CHER",

    "adresse": "RUE DES CHANTELETTES CIDEX 2148 41200 VILLEFRANCHE SUR CHER",

    "mail": "505020@lcfoot.fr",

    "Latitude": "47.295539",

    "Longitude": "1.763109"
  },

  {
    "name": "LA PERCHERONNE A.S. LA VILLE DAN",

    "adresse": "Rue de la tutinière 41160 LA VILLE AUX CLERCS",

    "mail": "514337@lcfoot.fr",

    "Latitude": "47.914436",

    "Longitude": "1.0824609"
  },

  {
    "name": "F.C. DU HAUT VENDOMOIS",

    "adresse": "41160 MOREE",

    "mail": "549456@lcfoot.fr",

    "Latitude": "47.903352",

    "Longitude": "1.234261"
  },

  {
    "name": "J. FRANCE HERBAULT",

    "adresse": "41190 HERBAULT",

    "mail": "515257@lcfoot.fr",

    "Latitude": "47.604235",

    "Longitude": "1.139623"
  },

  {
    "name": "AM.J. SECT. MONT ET BRACIEUX",

    "adresse": "RUE DE CANDY 41250 BRACIEUX",

    "mail": "542757@lcfoot.fr",

    "Latitude": "47.5499418",

    "Longitude": "1.5488135"
  },

  {
    "name": "FOOTBALL CLUB DE MARCILLY EN GAULT",

    "adresse": "Route de Millançay 41210 MARCILLY EN GAULT",

    "mail": "563858@lcfoot.fr",

    "Latitude": "47.4641482",

    "Longitude": "1.8712999"
  },

  {
    "name": "U.S. MER",

    "adresse": "41500 MER",

    "mail": "504856@lcfoot.fr",

    "Latitude": "47.7004423",

    "Longitude": "1.5101354"
  },

  {
    "name": "ST. MONTOIRE",

    "adresse": "41800 MONTOIRE SUR LE LOIR",

    "mail": "504881@lcfoot.fr",

    "Latitude": "47.752435",

    "Longitude": "0.862388"
  },

  {
    "name": "N.T.V.A. ENTENTE JEUNES 41",

    "adresse": "2 rue du stade 41100 NAVEIL",

    "mail": "581739@lcfoot.fr",

    "Latitude": "47.796009",

    "Longitude": "1.0313134"
  },

  {
    "name": "A.S.L. ORCHAISE",

    "adresse": "41190 ORCHAISE",

    "mail": "529050@lcfoot.fr",

    "Latitude": "47.59069",

    "Longitude": "1.198809"
  },

  {
    "name": "C.S. OUCQUES",

    "adresse": "5 rue de la Salle 41290 OUCQUES",

    "mail": "504948@lcfoot.fr",

    "Latitude": "47.8231539",

    "Longitude": "1.2936404"
  },

  {
    "name": "U.S. PRUNIERS",

    "adresse": "41200 PRUNIERS EN SOLOGNE",

    "mail": "518434@lcfoot.fr",

    "Latitude": "47.322178",

    "Longitude": "1.670707"
  },

  {
    "name": "AVT G. SAVIGNY S/BRAYE",

    "adresse": "stade rue des pâtis 41360 SAVIGNY SUR BRAYE",

    "mail": "504880@lcfoot.fr",

    "Latitude": "47.8764283",

    "Longitude": "0.8065504"
  },

  {
    "name": "U.S. SELOMMES",

    "adresse": "41100 SELOMMES",

    "mail": "510230@lcfoot.fr",

    "Latitude": "47.756017",

    "Longitude": "1.193097"
  },

  {
    "name": "A.S. SOINGS EN SOLOGNE",

    "adresse": "4 rue de la Croix de Pierre 41230 SOINGS EN SOLOGNE",

    "mail": "505430@lcfoot.fr",

    "Latitude": "47.4134888",

    "Longitude": "1.5244475"
  },

  {
    "name": "LA SOUDAYSIENNE SOUDAY",

    "adresse": "rue de la mairie 41170 SOUDAY",

    "mail": "539676@lcfoot.fr",

    "Latitude": "48.0358473",

    "Longitude": "0.8635477"
  },

  {
    "name": "U.S. ST. AIGNAN NOYERS",

    "adresse": "RUE DU STADE 41110 ST AIGNAN",

    "mail": "505176@lcfoot.fr",

    "Latitude": "47.2677279",

    "Longitude": "1.3603603"
  },

  {
    "name": "AV. ST. AMAND LONGPRE",

    "adresse": "18. rue Jules Ferry 41310 ST AMAND LONGPRE",

    "mail": "505182@lcfoot.fr",

    "Latitude": "47.6894202",

    "Longitude": "1.0161588"
  },

  {
    "name": "U.S. ST. GEORGES S/CHER",

    "adresse": "18 Rue de la Chaussée FRANCILLON 41000 VILLEBAROU",

    "mail": "525259@lcfoot.fr",

    "Latitude": "47.625585",

    "Longitude": "1.337944"
  },

  {
    "name": "U.S. ST. MARTIN DES BOIS",

    "adresse": "17 RUE SAINT GEORGES 41800 ST MARTIN DES BOIS",

    "mail": "538422@lcfoot.fr",

    "Latitude": "47.723603",

    "Longitude": "0.825972"
  },

  {
    "name": "AM. LAIQ. E.P. ST. OUEN",

    "adresse": "Section Football 36 Rue Georges Carré 41100 ST OUEN",

    "mail": "534010@lcfoot.fr",

    "Latitude": "47.80919",

    "Longitude": "1.0844557"
  },

  {
    "name": "A.S. SUEVRES",

    "adresse": "41500 SUEVRES",

    "mail": "519551@lcfoot.fr",

    "Latitude": "47.6670773",

    "Longitude": "1.4610338"
  },

  {
    "name": "U.S. THOURY",

    "adresse": "41220 THOURY",

    "mail": "524974@lcfoot.fr",

    "Latitude": "47.630339",

    "Longitude": "1.595906"
  },

  {
    "name": "U.S. VENDOME",

    "adresse": "41103 VENDOME CEDEX",

    "mail": "504817@lcfoot.fr",

    "Latitude": "47.723111",

    "Longitude": "1.009018"
  },

  {
    "name": "ENT. VILLETRUN COULOMMIERS ROCE F",

    "adresse": "41100 VILLETRUN",

    "mail": "523161@lcfoot.fr",

    "Latitude": "47.786664",

    "Longitude": "1.160069"
  },

  {
    "name": "F.C. VILLIERS SUR LOIR",

    "adresse": "PLACE FORTIER 41100 VILLIERS SUR LOIR",

    "mail": "527444@lcfoot.fr",

    "Latitude": "47.8065341",

    "Longitude": "0.9948048"
  },

  {
    "name": "U.S. EPUISAY",

    "adresse": "41360 EPUISAY",

    "mail": "549376@lcfoot.fr",

    "Latitude": "47.901233",

    "Longitude": "0.929624"
  },

  {
    "name": "ET.S. VILLEBAROU",

    "adresse": "21 rue des écoles 41000 VILLEBAROU",

    "mail": "518553@lcfoot.fr",

    "Latitude": "47.6189161",

    "Longitude": "1.3251724"
  },

  {
    "name": "FUTSAL CLUB BLOIS 41",

    "adresse": "58 AVENUE DE FRANCE 41000 BLOIS",

    "mail": "582111@lcfoot.fr",

    "Latitude": "47.5943304",

    "Longitude": "1.3152493"
  },

  {
    "name": "F.C. THENAY PONTLEVOY SAMBIN",

    "adresse": "41120 SAMBIN",

    "mail": "550132@lcfoot.fr",

    "Latitude": "47.437842",

    "Longitude": "1.295083"
  },

  {
    "name": "ENT. ST SULPICE-FOSSE-MAROLLES",

    "adresse": "24 rue des Ecoles 41330 MAROLLES",

    "mail": "541778@lcfoot.fr",

    "Latitude": "47.6455431",

    "Longitude": "1.305319"
  },

  {
    "name": "A.S. GY EN SOLOGNE",

    "adresse": "3 bis rue des TAILLEURS 41230 GY EN SOLOGNE",

    "mail": "531723@lcfoot.fr",

    "Latitude": "47.3452736",

    "Longitude": "1.5828781"
  },

  {
    "name": "U.S. HUISSEAU ST CLAUDE DIRAY",

    "adresse": "7 rue de chambord 41350 MONTLIVAULT",

    "mail": "542756@lcfoot.fr",

    "Latitude": "47.6415039",

    "Longitude": "1.4446344"
  },

  {
    "name": "F.C. LE GAULT DU PERCHE",

    "adresse": "LA BEAUDRONNIERE ROUTE DE LA FONTENELLE 41270 DROUE",

    "mail": "538420@lcfoot.fr",

    "Latitude": "48.0439182",

    "Longitude": "1.0704778"
  },

  {
    "name": "LES CARABINIERS MAVES",

    "adresse": "41500 MAVES",

    "mail": "509273@lcfoot.fr",

    "Latitude": "47.743656",

    "Longitude": "1.364256"
  },

  {
    "name": "A.S. PORTUGAISE MER",

    "adresse": "41500 MER",

    "mail": "527443@lcfoot.fr",

    "Latitude": "47.7004423",

    "Longitude": "1.5101354"
  },

  {
    "name": "A.S. DES TURCS MER",

    "adresse": "ROUTE DE LA CHAPELLE ST.MARTIN 41500 MER",

    "mail": "554001@lcfoot.fr",

    "Latitude": "47.7004423",

    "Longitude": "1.5101354"
  },

  {
    "name": "F.C. MEUSNES",

    "adresse": "718 rue alphonse lamartine 41130 MEUSNES",

    "mail": "548255@lcfoot.fr",

    "Latitude": "47.2542391",

    "Longitude": "1.486762"
  },

  {
    "name": "U.S. MUIDES - ST.DYE",

    "adresse": "RUE DE LA MAIRIE 41500 MUIDES SUR LOIRE",

    "mail": "552065@lcfoot.fr",

    "Latitude": "47.6682282",

    "Longitude": "1.5235658"
  },

  {
    "name": "A.S. MUR DE SOLOGNE",

    "adresse": "41230 MUR DE SOLOGNE",

    "mail": "505060@lcfoot.fr",

    "Latitude": "47.4124",

    "Longitude": "1.607615"
  },

  {
    "name": "J.S. NAVEIL",

    "adresse": "2 rue du stade 41100 NAVEIL",

    "mail": "515097@lcfoot.fr",

    "Latitude": "47.796009",

    "Longitude": "1.0313134"
  },

  {
    "name": "A.S. NOUAN-LAMOTTE",

    "adresse": "AVENUE DE L'HOTEL DE VILLE 41600 LAMOTTE BEUVRON",

    "mail": "552107@lcfoot.fr",

    "Latitude": "47.6010034",

    "Longitude": "2.0245832"
  },

  {
    "name": "A.S. OISLY",

    "adresse": "LE BOURG 41700 OISLY",

    "mail": "525443@lcfoot.fr",

    "Latitude": "47.3892361",

    "Longitude": "1.3778482"
  },

  {
    "name": "RACING CLUB DE VENDOME",

    "adresse": "1 IMPASSE DE LA MARIEE 41100 VENDOME",

    "mail": "582748@lcfoot.fr",

    "Latitude": "47.8026987",

    "Longitude": "1.0375728"
  },

  {
    "name": "U.S. FRANCO TURQUE ROMORANTIN",

    "adresse": "14 rue hubert fillay 41200 ROMORANTIN LANTHENAY",

    "mail": "549377@lcfoot.fr",

    "Latitude": "47.3435065",

    "Longitude": "1.7367606"
  },

  {
    "name": "SOLOGNE OLYMPIQUE ROMORANTIN",

    "adresse": "41200 ROMORANTIN LANTHENAY",

    "mail": "500338@lcfoot.fr",

    "Latitude": "47.358657",

    "Longitude": "1.747259"
  },

  {
    "name": "F.C. DES PORTUGAIS SELLES S/CHER",

    "adresse": "41130 SELLES SUR CHER",

    "mail": "527929@lcfoot.fr",

    "Latitude": "47.27484",

    "Longitude": "1.554083"
  },

  {
    "name": "DIABLES ROUGES SELLES ST DENIS",

    "adresse": "4 RUE DE BOURGOGNE 41300 SELLES ST DENIS",

    "mail": "514349@lcfoot.fr",

    "Latitude": "47.3867528",

    "Longitude": "1.9238125"
  },

  {
    "name": "STE S. LA SOLOGNOTE SOUESMES",

    "adresse": "8 RUE DU BOIS 41300 SOUESMES",

    "mail": "505440@lcfoot.fr",

    "Latitude": "47.4585188",

    "Longitude": "2.1810327"
  },

  {
    "name": "A.S. ST. GERVAIS LA FORET",

    "adresse": "41350 ST GERVAIS LA FORET",

    "mail": "528881@lcfoot.fr",

    "Latitude": "47.561093",

    "Longitude": "1.361681"
  },

  {
    "name": "A.S. ST. JULIEN S/CHER CHAPELLE...",

    "adresse": "41320 ST JULIEN SUR CHER",

    "mail": "531724@lcfoot.fr",

    "Latitude": "47.2821039",

    "Longitude": "1.774068"
  },

  {
    "name": "FRANCS LURONS ST. VIATRE",

    "adresse": "20 rue de la Paix 41210 ST VIATRE",

    "mail": "505234@lcfoot.fr",

    "Latitude": "47.5215698",

    "Longitude": "1.9324586"
  },

  {
    "name": "TAYMATE HORIZON",

    "adresse": "17 rue Roland Garros 41000 BLOIS",

    "mail": "582469@lcfoot.fr",

    "Latitude": "47.591675",

    "Longitude": "1.3107062"
  },

  {
    "name": "U.S. THEILLAY",

    "adresse": "1 route de chatres 41300 THEILLAY",

    "mail": "505431@lcfoot.fr",

    "Latitude": "47.3130235",

    "Longitude": "2.0388838"
  },

  {
    "name": "ASSOCIATION DE LA JEUNESSE SPORTIVE THESEENNE",

    "adresse": "41140 THESEE",

    "mail": "864155@lcfoot.fr",

    "Latitude": "47.32827",

    "Longitude": "1.30594"
  },

  {
    "name": "A.S. VILLERBON",

    "adresse": "37 rue du Moulin 41000 VILLERBON",

    "mail": "535457@lcfoot.fr",

    "Latitude": "47.6613841",

    "Longitude": "1.3702295"
  },

  {
    "name": "VINEUIL SP.",

    "adresse": "RUE DU STADE 41350 VINEUIL",

    "mail": "520950@lcfoot.fr",

    "Latitude": "47.584587",

    "Longitude": "1.3831469"
  },

  {
    "name": "VERNOU NEUNG COURMEMIN FOOT",

    "adresse": "Mairie de Neung sur Beuvron 41210 NEUNG SUR BEUVRON",

    "mail": "590258@lcfoot.fr",

    "Latitude": "47.5344312",

    "Longitude": "1.8054878"
  },

  {
    "name": "SP.C. VOUZON",

    "adresse": "41600 VOUZON",

    "mail": "517966@lcfoot.fr",

    "Latitude": "47.645159",

    "Longitude": "2.058555"
  },

  {
    "name": "AM . DES EDUCATEURS DE F. DIPLOMES DU LOIRET",

    "adresse": "16 AVENUE DES DROITS DE L'HOMME 45029 ORLEANS CEDEX 1",

    "mail": "890621@lcfoot.fr",

    "Latitude": "47.916831",

    "Longitude": "1.9246741"
  },

  {
    "name": "J3 SP. AMILLY",

    "adresse": "126 RUE MAURICE GENEVOIX 45200 AMILLY",

    "mail": "511828@lcfoot.fr",

    "Latitude": "47.991807",

    "Longitude": "2.7711542"
  },

  {
    "name": "AM.S. AUGERVILLE LA RIVIERE",

    "adresse": "45330 AUGERVILLE LA RIVIERE",

    "mail": "520294@lcfoot.fr",

    "Latitude": "48.252386",

    "Longitude": "2.4373"
  },

  {
    "name": "LA SELLE S/BIED ANIMATIONS ET L. F.",

    "adresse": "18 rue du limousin 45210 LA SELLE SUR LE BIED",

    "mail": "550650@lcfoot.fr",

    "Latitude": "48.0631257",

    "Longitude": "2.8944447"
  },

  {
    "name": "A.S. BACCON HUISSEAU",

    "adresse": "118 RUE DU BOIS DE DEURE 45130 HUISSEAU SUR MAUVES",

    "mail": "549443@lcfoot.fr",

    "Latitude": "47.8931039",

    "Longitude": "1.7028165"
  },

  {
    "name": "ENTENTE BAULOISE F.",

    "adresse": "45130 BAULE",

    "mail": "535803@lcfoot.fr",

    "Latitude": "47.810866",

    "Longitude": "1.670725"
  },

  {
    "name": "U.S. BAZOCHES LES GALLERANDES",

    "adresse": "45480 BAZOCHES LES GALLERANDES",

    "mail": "518977@lcfoot.fr",

    "Latitude": "48.164554",

    "Longitude": "2.042537"
  },

  {
    "name": "U.S. BALGENTIENNE VAL/L BEAUGENC",

    "adresse": "AVENUE DE CHAMBORD 45190 BEAUGENCY",

    "mail": "505375@lcfoot.fr",

    "Latitude": "47.7808765",

    "Longitude": "1.6343031"
  },

  {
    "name": "C.SP. LUSITANOS BEAUGENCY",

    "adresse": "1 ALLEE PIERRE DE RONSARD 45190 BEAUGENCY",

    "mail": "526495@lcfoot.fr",

    "Latitude": "47.781098",

    "Longitude": "1.6233418"
  },

  {
    "name": "U.S. BEAUNE LA ROLANDE",

    "adresse": "1 RUE DE LA CITE 45340 BEAUNE LA ROLANDE",

    "mail": "515726@lcfoot.fr",

    "Latitude": "48.066653",

    "Longitude": "2.4298931"
  },

  {
    "name": "BELLEGARDE LADON F.C.",

    "adresse": "COUR D'ANTIN 45270 BELLEGARDE",

    "mail": "553733@lcfoot.fr",

    "Latitude": "47.9880128",

    "Longitude": "2.4421181"
  },

  {
    "name": "AVANT GARDE BOIGNY CHECY MARDIE",

    "adresse": "3 RUE DE VERDUN 45760 BOIGNY SUR BIONNE",

    "mail": "560105@lcfoot.fr",

    "Latitude": "47.9222809",

    "Longitude": "2.0096017"
  },

  {
    "name": "A.S. BOISMORAND",

    "adresse": "45290 BOISMORAND",

    "mail": "526952@lcfoot.fr",

    "Latitude": "47.786864",

    "Longitude": "2.718628"
  },

  {
    "name": "BONNY- BEAULIEU FOOTBALL CLUB",

    "adresse": "15. Avenue Leclerc 45420 BONNY SUR LOIRE",

    "mail": "560138@lcfoot.fr",

    "Latitude": "47.5605157",

    "Longitude": "2.8407401"
  },

  {
    "name": "LA FRATERNELLE DE BOU",

    "adresse": "45430 BOU",

    "mail": "581014@lcfoot.fr",

    "Latitude": "47.874291",

    "Longitude": "2.046761"
  },

  {
    "name": "F.C. BOULAY BRICY GIDY",

    "adresse": "RUE DU STADE 45520 GIDY",

    "mail": "549470@lcfoot.fr",

    "Latitude": "47.9916146",

    "Longitude": "1.8370017"
  },

  {
    "name": "R.C. BOUZY LES BORDES",

    "adresse": "34 RUE DE LA MAIRIE 45460 LES BORDES",

    "mail": "590703@lcfoot.fr",

    "Latitude": "47.8123348",

    "Longitude": "2.4015623"
  },

  {
    "name": "AM.S.LAIQ. BOYNES",

    "adresse": "45300 BOYNES",

    "mail": "519638@lcfoot.fr",

    "Latitude": "48.119988",

    "Longitude": "2.35948"
  },

  {
    "name": "F.C. BRIARE",

    "adresse": "58 cité saint jean val jardin 45250 BRIARE",

    "mail": "582009@lcfoot.fr",

    "Latitude": "47.6470602",

    "Longitude": "2.7294136"
  },

  {
    "name": "U.S. BRIARE",

    "adresse": "45250 BRIARE",

    "mail": "504865@lcfoot.fr",

    "Latitude": "47.640045",

    "Longitude": "2.7406229"
  },

  {
    "name": "C. DEPORT ESPAGNOL ORLEANS",

    "adresse": "Avenue du champ de mars 45100 ORLEANS",

    "mail": "513055@lcfoot.fr",

    "Latitude": "47.8940179",

    "Longitude": "1.8918055"
  },

  {
    "name": "C.A. PITHIVIERS",

    "adresse": "16 rue gabriel lelong 45300 PITHIVIERS",

    "mail": "500287@lcfoot.fr",

    "Latitude": "48.1686494",

    "Longitude": "2.2438832"
  },

  {
    "name": "CERC.ML POST.SCOL.J FERRY FLEURY",

    "adresse": "151 RUE MARCELIN BERTHELOT 45400 FLEURY LES AUBRAIS",

    "mail": "525701@lcfoot.fr",

    "Latitude": "47.9291756",

    "Longitude": "1.915872"
  },

  {
    "name": "ENT. CHAINGY SAINT AY FOOTBALL",

    "adresse": "1 PLACE DU BOURG 45380 CHAINGY",

    "mail": "553261@lcfoot.fr",

    "Latitude": "47.8872555",

    "Longitude": "1.8428199"
  },

  {
    "name": "SP.C. CHALETTE S/LOING",

    "adresse": "45120 CHALETTE SUR LOING",

    "mail": "528086@lcfoot.fr",

    "Latitude": "48.014736",

    "Longitude": "2.73203"
  },

  {
    "name": "U.S. CHALETTE",

    "adresse": "1 place de la république 45120 CHALETTE SUR LOING",

    "mail": "550720@lcfoot.fr",

    "Latitude": "48.0148066",

    "Longitude": "2.7320278"
  },

  {
    "name": "U.S. DES TURCS CHALETTE S/LOING",

    "adresse": "45120 CHALETTE SUR LOING",

    "mail": "534003@lcfoot.fr",

    "Latitude": "48.014736",

    "Longitude": "2.73203"
  },

  {
    "name": "U.S. LA CHAPELLE ST MESMIN",

    "adresse": "rue d'ingré 45380 LA CHAPELLE ST MESMIN",

    "mail": "523929@lcfoot.fr",

    "Latitude": "47.8953197",

    "Longitude": "1.8380755"
  },

  {
    "name": "U.S. CHATEAUNEUF S/LOIRE",

    "adresse": "45110 CHATEAUNEUF SUR LOIRE",

    "mail": "505379@lcfoot.fr",

    "Latitude": "47.865635",

    "Longitude": "2.219056"
  },

  {
    "name": "R.C. CHATILLON S/LOIRE",

    "adresse": "45360 CHATILLON SUR LOIRE",

    "mail": "519670@lcfoot.fr",

    "Latitude": "47.590558",

    "Longitude": "2.752932"
  },

  {
    "name": "C.O. CHILLEURS AUX BOIS",

    "adresse": "42. grande rue 45170 CHILLEURS AUX BOIS",

    "mail": "505081@lcfoot.fr",

    "Latitude": "48.0709628",

    "Longitude": "2.1335178"
  },

  {
    "name": "A.S. CLERY ST ANDRE",

    "adresse": "45370 CLERY ST ANDRE",

    "mail": "505041@lcfoot.fr",

    "Latitude": "47.820782",

    "Longitude": "1.755812"
  },

  {
    "name": "A.S. CORBEILLES EN GATINAIS",

    "adresse": "45490 CORBEILLES",

    "mail": "505118@lcfoot.fr",

    "Latitude": "48.073033",

    "Longitude": "2.55255"
  },

  {
    "name": "F. C. DE COULLONS-CERDON",

    "adresse": "45720 COULLONS",

    "mail": "547227@lcfoot.fr",

    "Latitude": "47.5986283",

    "Longitude": "2.5019158"
  },

  {
    "name": "AM.S. COULMIERS EPIEDS",

    "adresse": "place st privat 45130 EPIEDS EN BEAUCE",

    "mail": "547567@lcfoot.fr",

    "Latitude": "47.9487723",

    "Longitude": "1.6183496"
  },

  {
    "name": "AV. COURTENAY",

    "adresse": "1 PLACE HONORE COMBE 45320 COURTENAY",

    "mail": "515096@lcfoot.fr",

    "Latitude": "48.0396139",

    "Longitude": "3.058514"
  },